     3.03           OBSERVATION DATA    E: Galielo          RINEX VERSION / TYPE
CONVBIN demo5 b34g                      20231126 132204 UTC PGM / RUN BY / DATE 
log: 20230910-MSM7.rtcm                                     COMMENT             
format: RTCM 3                                              COMMENT             
format: RTCM 3                                              COMMENT             
log: 20230910-MSM7.rtcm                                     COMMENT             
0000                                                        MARKER NAME         
                                                            MARKER NUMBER       
                                                            MARKER TYPE         
                                                            OBSERVER / AGENCY   
3614512             SEPT MOSAIC-X5      4.10.0.1            REC # / TYPE / VERS 
Unknown                                                     ANT # / TYPE        
  4030581.7173   316269.1857  4916722.7347                  APPROX POSITION XYZ 
        0.0000        0.0000        0.0000                  ANTENNA: DELTA H/E/N
E   16 C1C L1C D1C S1C C7Q L7Q D7Q S7Q C5Q L5Q D5Q S5Q C8Q  SYS / # / OBS TYPES 
       L8Q D8Q S8Q                                          SYS / # / OBS TYPES 
  2023    09    10    11    30   01.0000000     GPS         TIME OF FIRST OBS   
  2023    09    10    11    55   18.0000000     GPS         TIME OF LAST OBS    
E L1C  0.00000                                              SYS / PHASE SHIFT   
E L7Q  0.00000                                              SYS / PHASE SHIFT   
E L5Q  0.00000                                              SYS / PHASE SHIFT   
E L8Q  0.00000                                              SYS / PHASE SHIFT   
  0                                                         GLONASS SLOT / FRQ #
                                                            GLONASS COD/PHS/BIS 
                                                            END OF HEADER       
> 2023 09 10 11 30 01.0000000  0  9                     
E03                                                                  28603967.632   115176325.9801       2503.884          32.563    28603970.838   112248125.9621       2440.599          32.688                                                                  
E04  27080094.192   142306819.6571      -2447.483          38.188    27080097.436   109040285.6831      -1875.340          42.813    27080098.932   106268079.6091      -1827.520          42.563    27080098.700   107654183.6901      -1851.436          45.688  
E05  24308628.413   127742745.4491       2214.995          45.938    24308630.571    97880827.3621       1697.197          48.250    24308632.056    95392340.6401       1654.055          48.188    24308631.810    96636586.0441       1675.629          51.188  
E09  23615388.025   124099701.2401       -599.021          47.250    23615388.623    95089389.3311       -459.071          49.500    23615390.081    92671866.3581       -447.374          49.000    23615389.789    93880629.8861       -453.227          52.313  
E11  26947093.849   141607844.5501      -2877.096          29.750    26947099.941   108504687.9061      -2204.361          33.750    26947102.728   105746096.8281      -2148.429          35.313    26947101.880   107125394.4071      -2176.393          37.625  
E15  27600832.813   145043351.7951       3197.770          38.063    27600838.085   111137137.7291       2450.305          40.313    27600840.139   108311622.9881       2388.015          40.813    27600839.603   109724382.4011       2419.146          43.625  
E21  28616414.042   150380284.2431         98.408          34.125    28616418.975   115226466.3761         75.630          37.313    28616421.287   112296988.7921         73.649          38.813    28616420.369   113761730.1281         74.639          41.063  
E34  23889962.230   125542610.8461       1349.008          47.313    23889963.681    96194999.8711       1033.625          48.625    23889965.014    93749370.4221       1007.367          48.563    23889964.839    94972188.1881       1020.495          51.625  
E36  24100788.536   126650484.3871      -1582.973          46.500    24100790.898    97043879.1361      -1212.954          49.125    24100792.392    94576666.1221      -1182.150          48.375    24100792.177    95810274.1711      -1197.548          51.750  
> 2023 09 10 11 30 02.0000000  0  9                     
E03                                                                  28603345.528   115173821.295        2505.164          32.125    28603348.818   112245685.004        2441.176          32.938                                                                  
E04  27080559.643   142309266.273       -2446.132          38.375    27080562.947   109042160.370       -1874.398          42.813    27080564.517   106269906.641       -1826.734          42.563    27080564.285   107656034.550       -1850.542          45.750  
E05  24308206.763   127740529.808        2215.937          46.063    24308208.926    97879129.664        1697.927          48.188    24308210.425    95390686.110        1654.755          48.188    24308210.181    96634909.931        1676.352          51.188  
E09  23615501.924   124100299.673        -598.100          47.438    23615502.498    95089847.869        -458.290          49.563    23615503.963    92672313.236        -446.623          49.000    23615503.668    93881082.594        -452.453          52.313  
E11  26947641.244   141610720.482       -2875.575          29.375    26947647.115   108506891.546       -2203.426          33.625    26947650.004   105748244.454       -2147.456          35.063    26947649.202   107127570.043       -2175.476          37.375  
E15  27600223.901   145040153.216        3198.952          38.125    27600229.419   111134686.872        2451.194          40.500    27600231.578   108309234.437        2388.896          40.813    27600230.944   109721962.696        2420.058          43.688  
E21  28616395.230   150380185.165          99.503          34.063    28616400.082   115226390.483          76.098          37.188    28616402.549   112296914.813          74.211          39.125    28616401.521   113761655.191          75.161          41.188  
E34  23889705.402   125541261.205        1349.923          47.375    23889706.836    96193965.729        1034.372          48.688    23889708.170    93748362.578        1008.075          48.563    23889708.011    94971167.195        1021.222          51.625  
E36  24101089.593   126652066.690       -1581.971          46.563    24101092.011    97045091.550       -1212.206          49.188    24101093.518    94577847.709       -1181.369          48.375    24101093.269    95811471.172       -1196.777          51.813  
> 2023 09 10 11 30 03.0000000  0  9                     
E03                                                                  28602723.698   115171316.577        2504.852          31.813    28602727.187   112243243.946        2441.235          33.000                                                                  
E04  27081025.016   142311712.883       -2446.546          38.250    27081028.534   109044035.036       -1874.675          42.938    27081030.102   106271733.649       -1826.896          42.688    27081029.857   107657885.387       -1850.779          45.875  
E05  24307785.136   127738314.360        2215.448          46.063    24307787.359    97877432.116        1697.555          48.250    24307788.836    95389031.719        1654.325          48.250    24307788.592    96633233.961        1675.937          51.250  
E09  23615615.826   124100898.342        -598.703          47.375    23615616.410    95090306.587        -458.715          49.625    23615617.894    92672760.295        -447.073          49.000    23615617.587    93881535.483        -452.890          52.313  
E11  26948188.903   141613596.387       -2875.476          29.313    26948194.350   108509095.145       -2203.515          34.125    26948197.179   105750392.034       -2147.581          35.063    26948196.475   107129745.636       -2175.577          37.625  
E15  27599615.234   145036954.624        3198.609          38.000    27599620.656   111132235.999        2450.999          40.375    27599622.867   108306845.883        2388.634          40.813    27599622.284   109719542.983        2419.823          43.563  
E21  28616376.266   150380086.479          98.468          34.188    28616381.258   115226314.859          75.395          37.500    28616383.771   112296841.117          73.606          39.000    28616382.758   113761580.532          74.485          41.313  
E34  23889448.693   125539911.857        1349.290          47.250    23889450.095    96192931.813        1033.853          48.688    23889451.418    93747354.947        1007.592          48.563    23889451.237    94970146.423        1020.718          51.688  
E36  24101390.776   126653649.264       -1582.667          46.625    24101393.167    97046304.163       -1212.621          49.125    24101394.677    94579029.496       -1181.829          48.375    24101394.419    95812668.371       -1197.223          51.813  
> 2023 09 10 11 30 04.0000000  0  9                     
E03                                                                  28602101.498   115168811.531        2504.913          32.313    28602105.037   112240802.585        2441.209          32.750                                                                  
E04  27081490.602   142314159.102       -2446.281          38.250    27081493.997   109045909.403       -1874.309          42.875    27081495.564   106273560.357       -1826.695          42.625    27081495.362   107659735.925       -1850.490          45.813  
E05  24307363.510   127736098.735        2215.597          45.938    24307365.733    97875734.431        1697.660          48.250    24307367.238    95387377.192        1654.500          48.250    24307366.981    96631557.856        1676.079          51.250  
E09  23615729.789   124101496.880        -598.540          47.438    23615730.319    95090765.209        -458.660          49.625    23615731.805    92673207.256        -447.061          49.125    23615731.497    93881988.275        -452.854          52.375  
E11  26948736.204   141616471.950       -2875.603          29.875    26948741.661   108511298.463       -2203.238          34.188    26948744.303   105752539.314       -2147.251          35.125    26948743.672   107131920.930       -2175.221          37.688  
E15  27599006.252   145033755.632        3198.958          38.125    27599011.892   111129784.829        2451.259          40.250    27599014.202   108304457.031        2388.860          40.938    27599013.536   109717122.972        2420.065          43.625  
E21  28616357.490   150379987.772          98.808          34.000    28616362.571   115226239.222          75.516          37.688    28616365.085   112296767.402          73.677          39.188    28616363.990   113761505.855          74.612          41.438  
E34  23889191.956   125538562.423        1349.339          47.313    23889193.312    96191897.834        1033.872          48.625    23889194.635    93746347.254        1007.608          48.688    23889194.454    94969125.586        1020.727          51.688  
E36  24101691.894   126655231.711       -1582.560          46.563    24101694.290    97047516.693       -1212.616          49.188    24101695.789    94580211.197       -1181.734          48.438    24101695.539    95813865.488       -1197.185          51.875  
> 2023 09 10 11 30 05.0000000  0  9                     
E03                                                                  28601479.514   115166306.709        2504.544          32.375    28601482.917   112238361.430        2441.130          33.125                                                                  
E04  27081956.205   142316605.629       -2446.737          38.313    27081959.644   109047784.007       -1874.798          42.875    27081961.061   106275387.315       -1827.168          42.688    27081960.916   107661586.706       -1850.993          45.813  
E05  24306942.001   127733883.649        2214.879          46.000    24306944.216    97874037.158        1697.144          48.188    24306945.713    95385723.073        1653.956          48.313    24306945.459    96629882.158        1675.547          51.250  
E09  23615843.736   124102096.001        -599.360          47.375    23615844.307    95091224.271        -459.241          49.500    23615845.831    92673654.646        -447.584          49.125    23615845.501    93882441.501        -453.411          52.375  
E11  26949283.304   141619347.826       -2876.139          29.563    26949289.048   108513502.031       -2203.635          34.000    26949291.616   105754686.859       -2147.660          35.500    26949290.980   107134096.487       -2175.638          37.750  
E15  27598397.666   145030556.982        3198.351          37.938    27598403.175   111127333.908        2450.851          40.125    27598405.547   108302068.419        2388.466          40.938    27598404.836   109714703.205        2419.647          43.563  
E21  28616338.801   150379889.765          97.878          34.188    28616343.929   115226164.154          74.755          37.625    28616346.447   112296694.225          73.004          39.000    28616345.335   113761431.732          73.888          41.313  
E34  23888935.333   125537213.622        1348.517          47.313    23888936.633    96190864.336        1033.281          48.625    23888937.975    93745340.033        1007.038          48.750    23888937.797    94968105.225        1020.164          51.688  
E36  24101993.117   126656814.765       -1583.261          46.563    24101995.541    97048729.677       -1213.215          49.063    24101997.037    94581393.343       -1182.365          48.500    24101996.778    95815063.054       -1197.795          51.813  
> 2023 09 10 11 30 06.0000000  0  9                     
E03                                                                  28600857.517   115163802.385        2504.175          32.188    28600860.962   112235920.773        2440.999          32.938                                                                  
E04  27082422.043   142319052.884       -2447.377          38.313    27082425.318   109049659.181       -1875.272          42.875    27082426.736   106277214.804       -1827.599          42.625    27082426.622   107663438.037       -1851.439          45.813  
E05  24306520.691   127731669.505        2213.896          46.000    24306522.863    97872340.612        1696.358          48.188    24306524.402    95384069.654        1653.250          48.313    24306524.120    96628207.177        1674.806          51.250  
E09  23615958.000   124102696.106        -600.422          47.438    23615958.480    95091684.096        -460.070          49.563    23615960.060    92674102.777        -448.300          49.125    23615959.697    93882895.478        -454.188          52.375  
E11  26949830.460   141622224.346       -2876.814          29.250    26949836.566   108515706.123       -2204.028          34.250    26949839.039   105756834.916       -2148.185          35.063    26949838.419   107136272.566       -2176.132          37.750  
E15  27597789.181   145027359.059        3197.784          37.750    27597794.567   111124883.545        2450.349          40.188    27597796.991   108299680.355        2388.125          40.875    27597796.270   109712283.993        2419.250          43.500  
E21  28616320.449   150379792.898          96.719          34.313    28616325.439   115226089.909          74.027          37.438    28616328.080   112296621.904          72.146          38.875    28616326.898   113761358.451          73.083          41.188  
E34  23888678.873   125535865.847        1347.494          47.250    23888680.166    96189831.631        1032.496          48.688    23888681.506    93744333.582        1006.257          48.625    23888681.336    94967085.647        1019.381          51.750  
E36  24102294.571   126658398.826       -1584.322          46.625    24102297.003    97049943.436       -1213.918          49.063    24102298.496    94582576.240       -1183.097          48.500    24102298.215    95816261.382       -1198.507          51.875  
> 2023 09 10 11 30 07.0000000  0  9                     
E03                                                                  28600235.704   115161298.640        2503.319          32.188    28600239.242   112233480.716        2439.826          32.938                                                                  
E04  27082887.756   142321500.923       -2448.444          38.313    27082891.162   109051534.950       -1876.098          42.813    27082892.604   106279042.875       -1828.354          42.438    27082892.467   107665289.957       -1852.226          45.688  
E05  24306099.561   127729456.347        2212.743          46.000    24306101.699    97870644.818        1695.428          48.188    24306103.263    95382416.979        1652.291          48.188    24306102.982    96626532.942        1673.861          51.125  
E09  23616072.361   124103297.246        -601.684          47.438    23616072.863    95092144.705        -460.999          49.500    23616074.463    92674551.681        -449.301          49.000    23616074.086    93883350.234        -455.145          52.313  
E11  26950377.717   141625101.646       -2877.776          29.375    26950384.105   108517910.829       -2205.148          33.875    26950386.546   105758983.549       -2149.002          35.375    26950385.964   107138449.227       -2177.047          37.625  
E15  27597180.899   145024161.903        3196.740          37.938    27597186.130   111122433.797        2449.485          40.375    27597188.589   108297292.884        2387.187          40.813    27597187.879   109709865.384        2418.333          43.625  
E21  28616302.144   150379697.211          95.013          34.063    28616307.271   115226016.572          73.037          37.563    28616309.855   112296550.429          71.090          38.938    28616308.685   113761286.046          72.050          41.250  
E34  23888422.593   125534519.164        1346.164          47.375    23888423.874    96188799.754        1031.484          48.625    23888425.273    93743327.935        1005.321          48.563    23888425.072    94966066.886        1018.404          51.625  
E36  24102596.159   126659983.938       -1585.602          46.688    24102598.634    97051158.003       -1214.995          49.063    24102600.141    94583759.933       -1184.084          48.313    24102599.844    95817460.512       -1199.545          51.688  
> 2023 09 10 11 30 08.0000000  0  9                     
E03                                                                  28599613.949   115158794.859        2504.295          32.063    28599617.249   112231040.558        2440.419          32.563                                                                  
E04  27083353.521   142323948.929       -2447.508          38.313    27083356.994   109053410.687       -1875.482          42.938    27083358.384   106280870.935       -1827.762          42.375    27083358.303   107667141.857       -1851.633          45.750  
E05  24305678.479   127727243.389        2213.203          46.000    24305680.590    97868949.171        1695.908          48.188    24305682.153    95380764.437        1652.767          48.125    24305681.863    96624858.849        1674.332          51.125  
E09  23616186.795   124103898.618        -601.122          47.438    23616187.329    95092605.497        -460.552          49.500    23616188.896    92675000.758        -448.895          48.938    23616188.524    93883805.170        -454.725          52.250  
E11  26950925.719   141627978.928       -2877.048          29.563    26950931.662   108520115.464       -2204.219          34.188    26950934.074   105761132.148       -2148.296          35.188    26950933.506   107140625.851       -2176.273          37.688  
E15  27596572.575   145020964.730        3197.641          38.000    27596577.828   111119984.028        2450.127          40.375    27596580.138   108294905.397        2387.774          40.813    27596579.493   109707446.756        2418.962          43.625  
E21  28616284.017   150379601.866          95.503          34.063    28616289.076   115225943.541          73.123          37.563    28616291.691   112296479.245          71.287          38.938    28616290.557   113761213.939          72.189          41.250  
E34  23888166.409   125533172.760        1346.659          47.375    23888167.683    96187768.097        1031.853          48.625    23888169.065    93742322.511        1005.643          48.500    23888168.861    94965048.344        1018.747          51.563  
E36  24102897.823   126661569.305       -1585.094          46.688    24102900.374    97052372.762       -1214.552          49.063    24102901.821    94584943.809       -1183.672          48.250    24102901.531    95818659.828       -1199.113          51.688  
> 2023 09 10 11 30 09.0000000  0  9                     
E03                                                                  28598991.802   115156290.715        2503.352          32.000    28598995.417   112228600.073        2439.855          32.688                                                                  
E04  27083819.217   142326396.546       -2448.575          38.188    27083822.810   109055286.126       -1876.138          42.938    27083824.154   106282698.690       -1828.414          42.438    27083824.063   107668993.453       -1852.276          45.688  
E05  24305257.334   127725030.232        2212.053          46.063    24305259.446    97867253.383        1694.945          48.125    24305261.011    95379111.761        1651.874          48.188    24305260.712    96623184.616        1673.409          51.125  
E09  23616301.188   124104499.845        -602.289          47.625    23616301.747    95093066.181        -461.530          49.500    23616303.298    92675449.729        -449.746          48.938    23616302.939    93884259.997        -455.644          52.250  
E11  26951473.778   141630855.746       -2877.329          29.250    26951479.065   108522319.812       -2205.189          34.125    26951481.501   105763280.450       -2149.191          35.188    26951480.962   107142802.171       -2177.168          37.688  
E15  27595964.108   145017767.171        3196.719          38.375    27595969.352   111117533.941        2449.309          40.188    27595971.708   108292517.593        2387.200          41.000    27595971.012   109705027.811        2418.252          43.688  
E21  28616266.063   150379506.521          94.262          34.125    28616270.847   115225870.480          71.989          37.625    28616273.630   112296408.040          70.323          39.000    28616272.393   113761141.806          71.178          41.313  
E34  23887910.163   125531826.266        1345.359          47.625    23887911.428    96186736.364        1030.902          48.563    23887912.860    93741317.008        1004.713          48.438    23887912.633    94964029.728        1017.802          51.563  
E36  24103199.430   126663154.546       -1586.301          46.688    24103202.039    97053587.430       -1215.488          49.063    24103203.478    94586127.590       -1184.590          48.313    24103203.191    95819859.054       -1200.042          51.688  
> 2023 09 10 11 30 10.0000000  0  9                     
E03                                                                  28598369.890   115153786.667        2504.031          31.750    28598373.590   112226159.701        2440.146          32.563                                                                  
E04  27084284.982   142328844.299       -2447.919          38.375    27084288.628   109057161.675       -1875.678          42.938    27084289.965   106284526.572       -1828.154          42.500    27084289.844   107670845.169       -1851.921          45.813  
E05  24304836.239   127722817.462        2212.456          46.125    24304838.383    97865557.880        1695.300          48.125    24304839.941    95377459.370        1652.207          48.313    24304839.637    96621510.668        1673.755          51.188  
E09  23616415.655   124105101.509        -602.000          47.625    23616416.232    95093527.191        -461.243          49.563    23616417.798    92675899.023        -449.554          48.938    23616417.431    93884715.149        -455.394          52.313  
E11  26952020.971   141633732.792       -2876.967          29.625    26952026.479   108524524.256       -2204.689          34.375    26952029.063   105765428.835       -2148.250          34.938    26952028.445   107144978.590       -2176.449          37.625  
E15  27595355.644   145014569.772        3197.139          38.188    27595360.913   111115083.990        2449.787          40.313    27595363.180   108290129.950        2387.413          40.875    27595362.563   109702609.013        2418.594          43.625  
E21  28616247.795   150379411.722          94.342          34.313    28616252.741   115225797.841          72.421          37.625    28616255.474   112296337.253          70.614          39.063    28616254.346   113761070.094          71.498          41.375  
E34  23887654.011   125530480.239        1345.743          47.563    23887655.313    96185704.999        1031.109          48.688    23887656.729    93740311.863        1004.952          48.500    23887656.489    94963011.473        1018.032          51.625  
E36  24103501.256   126664740.241       -1586.073          46.813    24103503.779    97054802.435       -1215.228          49.063    24103505.233    94587311.709       -1184.363          48.313    24103504.940    95821058.616       -1199.798          51.750  
> 2023 09 10 11 30 11.0000000  0  9                     
E03                                                                  28597747.842   115151282.519        2504.683          32.188    28597751.693   112223719.235        2440.803          32.563                                                                  
E04  27084750.774   142331291.978       -2446.902          38.313    27084754.448   109059037.156       -1874.928          42.938    27084755.765   106286354.356       -1827.269          42.313    27084755.604   107672696.800       -1851.100          45.688  
E05  24304415.216   127720604.788        2213.306          46.000    24304417.361    97863862.467        1695.848          48.188    24304418.888    95375807.057        1652.725          48.188    24304418.571    96619836.806        1674.290          51.188  
E09  23616530.184   124105703.319        -601.235          47.563    23616530.739    95093988.317        -460.707          49.563    23616532.315    92676348.423        -448.989          48.813    23616531.944    93885170.412        -454.844          52.250  
E11  26952568.126   141636609.685       -2876.338          29.375    26952574.020   108526728.624       -2203.857          34.063    26952576.648   105767577.176       -2147.799          34.938    26952575.906   107147154.943       -2175.823          37.500  
E15  27594747.168   145011372.286        3198.184          38.250    27594752.410   111112633.957        2450.506          40.375    27594754.790   108287742.201        2388.193          40.875    27594754.087   109700190.123        2419.356          43.625  
E21  28616229.673   150379317.215          94.956          34.250    28616234.755   115225725.424          72.759          37.625    28616237.490   112296266.670          70.967          39.000    28616236.383   113760998.590          71.861          41.375  
E34  23887397.936   125529134.423        1346.388          47.438    23887399.221    96184673.787        1031.591          48.625    23887400.608    93739306.875        1005.389          48.375    23887400.386    94961993.372        1018.489          51.500  
E36  24103803.083   126666326.094       -1585.275          46.625    24103805.522    97056017.570       -1214.732          49.125    24103807.027    94588495.952       -1183.846          48.250    24103806.717    95822258.305       -1199.284          51.688  
> 2023 09 10 11 30 12.0000000  0  9                     
E03                                                                  28597125.811   115148778.210        2504.206          31.813    28597129.792   112221278.592        2440.285          32.688                                                                  
E04  27085216.649   142333739.465       -2447.683          38.250    27085220.238   109060912.509       -1875.603          43.125    27085221.564   106288182.024       -1827.779          42.438    27085221.341   107674548.312       -1851.699          45.750  
E05  24303994.210   127718392.191        2212.190          46.063    24303996.332    97862167.094        1695.118          48.250    24303997.864    95374154.788        1652.000          48.250    24303997.528    96618162.985        1673.558          51.188  
E09  23616644.733   124106305.227        -602.268          47.625    23616645.255    95094449.523        -461.458          49.625    23616646.866    92676797.903        -449.786          48.813    23616646.476    93885625.755        -455.614          52.250  
E11  26953115.244   141639486.445       -2876.476          30.000    26953121.512   108528932.880       -2204.269          34.250    26953123.983   105769725.390       -2148.406          34.813    26953123.376   107149331.180       -2176.349          37.563  
E15  27594138.750   145008174.621        3197.528          38.125    27594143.907   111110183.824        2449.959          40.563    27594146.352   108285354.353        2387.618          41.000    27594145.593   109697771.131        2418.799          43.813  
E21  28616212.032   150379222.931          93.667          34.000    28616216.927   115225653.186          71.799          37.750    28616219.535   112296196.264          70.185          38.938    28616218.461   113760927.268          71.017          41.438  
E34  23887141.914   125527788.746        1345.399          47.500    23887143.137    96183642.686        1030.870          48.625    23887144.540    93738301.991        1004.557          48.438    23887144.305    94960975.380        1017.719          51.563  
E36  24104104.891   126667912.079       -1586.339          46.750    24104107.310    97057232.803       -1215.512          49.188    24104108.853    94589680.285       -1184.566          48.250    24104108.520    95823458.089       -1200.045          51.750  
> 2023 09 10 11 30 13.0000000  0  9                     
E03                                                                  28596504.121   115146273.807        2504.647          31.938    28596507.927   112218837.859        2440.735          32.375                                                                  
E04  27085682.196   142336186.893       -2447.244          38.188    27085685.976   109062787.813       -1875.271          43.250    27085687.289   106290009.649       -1827.618          42.438    27085687.070   107676399.777       -1851.446          45.938  
E05  24303573.151   127716179.717        2212.507          46.125    24303575.291    97860471.830        1695.214          48.188    24303576.850    95372502.622        1652.136          48.188    24303576.498    96616489.268        1673.671          51.125  
E09  23616759.358   124106907.328        -602.160          47.688    23616759.801    95094910.878        -461.452          49.625    23616761.430    92677247.524        -449.675          48.750    23616761.048    93886081.244        -455.564          52.188  
E11  26953662.794   141642363.129       -2876.852          29.563    26953669.088   108531137.066       -2204.017          34.000    26953671.379   105771873.537       -2148.237          35.000    26953670.783   107151507.347       -2176.142          37.500  
E15  27593530.219   145004976.922        3197.783          38.188    27593535.375   111107733.627        2450.336          40.500    27593537.896   108282966.454        2387.983          40.938    27593537.081   109695352.083        2419.162          43.750  
E21  28616194.037   150379128.952          93.842          33.813    28616199.046   115225581.175          71.998          38.000    28616201.599   112296126.098          70.154          38.750    28616200.597   113760856.180          71.083          41.375  
E34  23886885.829   125526443.322        1345.292          47.625    23886887.133    96182611.776        1030.829          48.625    23886888.526    93737297.286        1004.590          48.438    23886888.282    94959957.572        1017.712          51.563  
E36  24104406.763   126669498.264       -1586.168          46.750    24104409.156    97058448.193       -1215.397          49.188    24104410.701    94590864.778       -1184.601          48.188    24104410.359    95824658.030       -1199.990          51.750  
> 2023 09 10 11 30 14.0000000  0  9                     
E03                                                                  28595882.446   115143769.645        2504.316          31.625    28595886.099   112216397.372        2440.281          32.375                                                                  
E04  27086148.022   142338634.650       -2447.691          38.313    27086151.817   109064663.354       -1875.609          43.188    27086153.075   106291837.517       -1827.907          42.375    27086152.870   107678251.482       -1851.760          45.875  
E05  24303152.269   127713967.801        2211.792          46.125    24303154.330    97858776.983        1694.745          48.188    24303155.935    95370850.874        1651.591          48.250    24303155.593    96614815.972        1673.168          51.188  
E09  23616874.017   124107510.027        -602.904          47.563    23616874.474    95095372.677        -461.946          49.563    23616876.108    92677697.589        -450.262          48.688    23616875.736    93886537.175        -456.097          52.188  
E11  26954210.113   141645240.073       -2876.914          29.688    26954216.590   108533341.509       -2204.728          34.125    26954218.807   105774021.913       -2148.246          34.625    26954218.270   107153683.751       -2176.480          37.375  
E15  27592921.784   145001779.547        3197.269          38.188    27592926.909   111105283.690        2449.988          40.438    27592929.338   108280578.795        2387.750          41.000    27592928.623   109692933.286        2418.859          43.750  
E21  28616176.615   150379035.716          93.163          34.063    28616181.368   115225509.743          71.203          38.063    28616183.726   112296056.482          69.385          39.000    28616182.845   113760785.657          70.277          41.563  
E34  23886629.903   125525098.531        1344.588          47.563    23886631.240    96181581.348        1030.298          48.688    23886632.618    93736293.055        1004.112          48.375    23886632.367    94958940.243        1017.213          51.563  
E36  24104708.736   126671085.070       -1587.025          46.875    24104711.117    97059664.055       -1216.014          49.188    24104712.636    94592049.728       -1185.136          48.313    24104712.314    95825858.436       -1200.573          51.750  
> 2023 09 10 11 30 15.0000000  0  9                     
E03                                                                  28595260.361   115141265.525        2503.808          31.563    28595264.304   112213956.860        2440.281          32.563                                                                  
E04  27086613.902   142341082.459       -2447.846          38.250    27086617.649   109066538.943       -1875.590          43.063    27086618.927   106293665.412       -1827.883          42.313    27086618.666   107680103.223       -1851.730          45.750  
E05  24302731.407   127711756.151        2211.359          46.125    24302733.415    97857082.351        1694.398          48.125    24302735.060    95369199.317        1651.400          48.313    24302734.719    96613142.877        1672.891          51.188  
E09  23616988.693   124108113.028        -603.273          47.688    23616989.217    95095834.718        -462.289          49.563    23616990.859    92678147.881        -450.514          48.813    23616990.478    93886993.342        -456.404          52.188  
E11  26954757.731   141648117.094       -2876.864          29.500    26954764.149   108535545.946       -2204.441          34.000    26954766.225   105776170.304       -2148.297          34.688    26954765.758   107155860.169       -2176.388          37.375  
E15  27592313.455   144998582.237        3197.122          38.438    27592318.506   111102833.800        2449.734          40.500    27592320.941   108278191.198        2387.500          41.000    27592320.183   109690514.541        2418.627          43.813  
E21  28616158.873   150378942.933          92.425          33.750    28616163.825   115225438.640          71.109          38.000    28616166.038   112295987.184          69.067          38.938    28616165.164   113760715.456          70.079          41.500  
E34  23886374.038   125523754.095        1344.102          47.500    23886375.373    96180551.203        1029.894          48.688    23886376.789    93735289.100        1003.701          48.438    23886376.532    94957923.193        1016.798          51.563  
E36  24105010.771   126672672.202       -1587.426          46.813    24105013.164    97060880.166       -1216.319          49.125    24105014.648    94593234.920       -1185.382          48.313    24105014.332    95827059.088       -1200.850          51.750  
> 2023 09 10 11 30 16.0000000  0  9                     
E03                                                                  28594638.228   115138760.923        2504.576          31.688    28594642.247   112211515.951        2441.125          32.563                                                                  
E04  27087079.675   142343529.748       -2447.183          38.250    27087083.327   109068414.135       -1875.077          43.063    27087084.694   106295492.941       -1827.430          42.500    27087084.376   107681954.585       -1851.252          45.813  
E05  24302310.476   127709544.202        2211.986          46.125    24302312.503    97855387.484        1694.891          48.188    24302314.114    95367547.538        1651.873          48.375    24302313.801    96611469.555        1673.383          51.250  
E09  23617103.372   124108715.775        -602.703          47.563    23617103.933    95096296.569        -461.827          49.500    23617105.521    92678597.986        -450.082          48.813    23617105.184    93887449.320        -455.957          52.188  
E11  26955305.412   141650993.596       -2876.083          28.938    26955311.360   108537750.029       -2204.019          34.313    26955313.579   105778318.324       -2147.594          34.688    26955313.138   107158036.221       -2175.854          37.500  
E15  27591705.041   144995384.404        3197.939          38.313    27591710.085   111100383.523        2450.335          40.438    27591712.379   108275803.211        2388.243          41.125    27591711.675   109688095.410        2419.267          43.813  
E21  28616141.077   150378849.989          93.069          34.125    28616146.068   115225367.440          71.335          37.813    28616148.385   112295917.795          69.314          38.875    28616147.483   113760645.161          70.299          41.375  
E34  23886118.257   125522409.456        1344.658          47.500    23886119.499    96179520.891        1030.305          48.688    23886120.902    93734284.980        1004.149          48.500    23886120.657    94956905.978        1017.223          51.625  
E36  24105312.702   126674259.098       -1586.931          46.813    24105315.131    97062096.095       -1215.911          49.125    24105316.613    94594419.934       -1185.006          48.313    24105316.301    95828259.561       -1200.470          51.750  
> 2023 09 10 11 30 17.0000000  0  9                     
E03                                                                  28594016.175   115136256.497        2503.766          31.563    28594020.212   112209075.189        2440.583          32.625                                                                  
E04  27087545.484   142345977.282       -2448.047          38.250    27087549.047   109070289.509       -1875.818          42.938    27087550.397   106297320.630       -1828.132          42.313    27087550.118   107683806.117       -1851.976          45.688  
E05  24301889.622   127707332.702        2210.833          46.250    24301891.658    97853692.948        1694.050          48.125    24301893.281    95365896.093        1650.993          48.375    24301892.954    96609796.564        1672.522          51.250  
E09  23617218.180   124109319.017        -603.975          47.688    23617218.702    95096758.788        -462.768          49.563    23617220.318    92679048.456        -451.006          48.750    23617219.979    93887905.664        -456.892          52.188  
E11  26955852.996   141653870.289       -2876.995          29.250    26955858.786   108539954.221       -2204.523          34.125    26955861.178   105780466.531       -2148.627          34.813    26955860.572   107160212.420       -2176.571          37.438  
E15  27591096.467   144992186.831        3196.866          38.500    27591101.606   111097933.433        2449.560          40.688    27591103.893   108273415.412        2387.390          41.188    27591103.204   109685676.464        2418.488          44.000  
E21  28616123.459   150378757.718          91.465          34.188    28616128.405   115225296.732          70.151          37.563    28616130.717   112295848.879          68.286          39.000    28616129.932   113760575.350          69.214          41.313  
E34  23885862.456   125521065.361        1343.401          47.625    23885863.721    96178491.000        1029.359          48.688    23885865.144    93733281.279        1003.169          48.500    23885864.893    94955889.181        1016.259          51.563  
E36  24105614.781   126675846.498       -1588.127          46.938    24105617.207    97063312.414       -1216.853          49.125    24105618.702    94595605.334       -1185.932          48.250    24105618.372    95829460.420       -1201.394          51.750  
> 2023 09 10 11 30 18.0000000  0  9                     
E03                                                                  28593394.233   115133752.647        2503.720          31.875    28593398.515   112206635.027        2439.868          32.625                                                                  
E04  27088011.423   142348425.622       -2448.471          38.063    27088014.914   109072165.506       -1876.147          43.000    27088016.317   106299148.923       -1828.255          42.313    27088016.003   107685658.261       -1852.201          45.688  
E05  24301469.025   127705122.231        2210.328          46.125    24301470.999    97851999.213        1693.579          48.188    24301472.614    95364245.421        1650.523          48.313    24301472.304    96608124.361        1672.050          51.188  
E09  23617333.178   124109923.331        -604.513          47.500    23617333.724    95097221.833        -463.166          49.563    23617335.316    92679499.730        -451.430          48.688    23617334.972    93888362.823        -457.293          52.188  
E11  26956400.526   141656747.812       -2877.575          30.000    26956406.371   108542159.067       -2204.845          34.313    26956408.830   105782615.305       -2148.789          34.625    26956408.149   107162389.230       -2176.820          37.438  
E15  27590488.175   144988990.051        3196.723          38.375    27590493.282   111095483.948        2449.496          40.563    27590495.562   108271028.215        2387.173          41.063    27590494.893   109683258.124        2418.348          43.875  
E21  28616106.220   150378666.604          91.169          34.625    28616111.084   115225226.926          69.774          37.563    28616113.429   112295780.857          67.890          38.750    28616112.609   113760506.437          68.831          41.188  
E34  23885606.860   125519722.385        1342.764          47.563    23885608.156    96177461.964        1028.890          48.688    23885609.583    93732278.405        1002.682          48.438    23885609.323    94954873.226        1015.785          51.625  
E36  24105917.086   126677434.995       -1588.696          46.875    24105919.474    97064529.573       -1217.293          49.125    24105920.953    94596791.545       -1186.362          48.250    24105920.654    95830662.104       -1201.834          51.750  
> 2023 09 10 11 30 19.0000000  0  9                     
E03                                                                  28592772.524   115131249.064        2503.326          31.750    28592776.618   112204195.064        2439.966          32.625                                                                  
E04  27088477.380   142350874.309       -2448.583          38.250    27088480.843   109074041.774       -1876.336          43.125    27088482.279   106300977.508       -1828.597          42.250    27088481.969   107687510.688       -1852.466          45.688  
E05  24301048.543   127702912.331        2209.760          46.188    24301050.431    97850305.926        1693.127          48.188    24301052.058    95362595.182        1650.073          48.375    24301051.762    96606452.597        1671.598          51.250  
E09  23617448.277   124110528.276        -605.130          47.563    23617448.849    95097685.364        -463.718          49.625    23617450.440    92679951.476        -451.893          48.813    23617450.085    93888820.461        -457.807          52.250  
E11  26956948.252   141659625.672       -2877.531          29.188    26956954.145   108544364.202       -2205.154          34.188    26956956.537   105784764.383       -2149.188          34.313    26956955.789   107164566.334       -2177.175          37.250  
E15  27589879.930   144985793.663        3196.201          38.313    27589885.001   111093034.771        2449.090          40.563    27589887.273   108268641.297        2386.938          41.125    27589886.645   109680840.077        2418.004          43.938  
E21  28616089.013   150378576.301          90.202          34.375    28616093.960   115225157.723          69.015          37.938    28616096.353   112295713.406          67.354          39.000    28616095.416   113760438.109          68.183          41.563  
E34  23885351.359   125518380.082        1342.146          47.563    23885352.720    96176433.454        1028.367          48.750    23885354.158    93731276.043        1002.187          48.438    23885353.894    94953857.791        1015.272          51.563  
E36  24106219.515   126679024.144       -1589.360          46.938    24106221.889    97065747.229       -1217.791          49.250    24106223.360    94597978.247       -1186.809          48.313    24106223.061    95831864.283       -1202.302          51.813  
> 2023 09 10 11 30 20.0000000  0  9                     
E03                                                                  28592150.750   115128744.986        2504.413          31.813    28592154.650   112201754.678        2440.446          32.875                                                                  
E04  27088943.382   142353322.437       -2447.949          38.063    27088946.618   109075917.607       -1875.671          43.188    27088948.159   106302805.643       -1827.970          42.438    27088947.831   107689362.672       -1851.825          45.813  
E05  24300627.960   127700702.091        2210.356          46.188    24300629.856    97848612.363        1693.660          48.125    24300631.470    95360944.673        1650.584          48.375    24300631.161    96604780.562        1672.119          51.250  
E09  23617563.340   124111132.902        -604.516          47.625    23617563.947    95098148.652        -463.241          49.688    23617565.499    92680402.982        -451.415          48.750    23617565.140    93889277.859        -457.332          52.250  
E11  26957495.822   141662503.019       -2877.724          29.688    26957501.588   108546568.855       -2204.542          34.188    26957503.956   105786912.981       -2148.405          34.563    26957503.307   107166742.964       -2176.489          37.313  
E15  27589271.600   144982596.717        3196.992          38.250    27589276.549   111090585.150        2449.701          40.688    27589278.865   108266253.958        2387.536          41.250    27589278.276   109678421.599        2418.601          44.063  
E21  28616071.923   150378485.789          90.613          34.313    28616076.753   115225088.365          69.506          38.000    28616079.051   112295645.816          67.557          38.938    28616078.200   113760369.634          68.534          41.500  
E34  23885095.905   125517037.525        1342.583          47.563    23885097.317    96175404.740        1028.717          48.688    23885098.670    93730273.481        1002.558          48.438    23885098.417    94952842.152        1015.636          51.563  
E36  24106521.871   126680612.993       -1588.796          47.000    24106524.252    97066964.663       -1217.383          49.250    24106525.701    94599164.728       -1186.497          48.375    24106525.409    95833066.240       -1201.934          51.813  
> 2023 09 10 11 30 21.0000000  0  9                     
E03                                                                  28591528.944   115126240.915        2503.394          31.875    28591532.750   112199314.262        2439.866          32.875                                                                  
E04  27089409.370   142355770.581       -2448.734          38.250    27089412.425   109077793.463       -1876.448          43.188    27089413.984   106304633.806       -1828.716          42.563    27089413.684   107691214.682       -1852.583          45.938  
E05  24300207.397   127698492.081        2209.137          46.250    24300209.308    97846918.974        1692.765          48.188    24300210.929    95359294.341        1649.646          48.375    24300210.595    96603108.700        1671.212          51.313  
E09  23617678.451   124111737.816        -605.792          47.688    23617679.028    95098612.150        -464.120          49.688    23617680.624    92680854.698        -452.318          48.813    23617680.248    93889735.465        -458.215          52.250  
E11  26958043.400   141665380.295       -2877.995          30.188    26958049.147   108548773.548       -2205.257          34.000    26958051.345   105789061.591       -2148.871          34.438    26958050.849   107168919.611       -2177.067          37.250  
E15  27588663.121   144979399.761        3196.188          38.250    27588668.155   111088135.554        2449.011          40.813    27588670.563   108263866.633        2386.727          41.500    27588669.908   109676003.136        2417.856          44.188  
E21  28616054.792   150378395.699          89.008          34.688    28616059.674   115225019.339          68.523          38.000    28616061.982   112295578.533          66.644          38.813    28616061.060   113760301.479          67.589          41.438  
E34  23884840.443   125515695.292        1341.331          47.688    23884841.898    96174376.272        1027.815          48.688    23884843.231    93729271.160        1001.626          48.500    23884842.993    94951826.758        1014.712          51.688  
E36  24106824.220   126682202.141       -1590.014          47.063    24106826.675    97068182.316       -1218.306          49.250    24106828.113    94600351.426       -1187.380          48.438    24106827.807    95834268.417       -1202.844          51.938  
> 2023 09 10 11 30 22.0000000  0  9                     
E03                                                                  28590907.265   115123737.231        2503.867          32.188    28590911.226   112196874.232        2440.225          33.000                                                                  
E04  27089875.293   142358219.294       -2448.391          38.250    27089878.363   109079669.735       -1876.165          43.313    27089879.927   106306462.375       -1828.356          42.500    27089879.659   107693067.101       -1852.256          46.000  
E05  24299786.963   127696282.851        2209.252          46.250    24299788.920    97845226.196        1692.801          48.188    24299790.510    95357644.595        1649.771          48.375    24299790.196    96601437.440        1671.289          51.250  
E09  23617793.775   124112343.550        -605.638          47.750    23617794.335    95099076.285        -464.085          49.813    23617795.907    92681307.035        -452.240          48.750    23617795.522    93890193.701        -458.162          52.313  
E11  26958591.023   141668258.179       -2877.816          29.563    26958596.818   108550978.664       -2205.092          34.375    26958599.274   105791210.649       -2148.954          34.563    26958598.502   107171096.701       -2177.031          37.438  
E15  27588054.847   144976203.412        3196.416          38.438    27588059.907   111085686.395        2449.180          40.875    27588062.361   108261479.745        2386.975          41.313    27588061.665   109673585.112        2418.102          44.188  
E21  28616037.961   150378306.549          89.167          34.313    28616042.601   115224951.037          68.279          37.938    28616044.973   112295511.971          66.523          38.813    28616044.122   113760234.048          67.426          41.438  
E34  23884585.163   125514353.933        1341.399          47.625    23884586.676    96173348.482        1027.832          48.813    23884587.979    93728269.498        1001.699          48.500    23884587.749    94950812.032        1014.761          51.688  
E36  24107126.835   126683792.132       -1589.901          47.063    24107129.240    97069400.626       -1218.264          49.313    24107130.673    94601538.759       -1187.318          48.438    24107130.366    95835471.238       -1202.791          51.938  
> 2023 09 10 11 30 23.0000000  0  9                     
E03                                                                  28590285.435   115121233.282        2504.073          32.313    28590289.331   112194433.936        2440.400          33.375                                                                  
E04  27090341.200   142360667.680       -2448.297          38.375    27090344.261   109081545.767       -1875.873          43.250    27090345.890   106308290.712       -1828.217          42.688    27090345.575   107694919.286       -1852.056          46.000  
E05  24299366.516   127694073.506        2209.459          46.313    24299368.483    97843533.323        1692.955          48.125    24299370.092    95355994.762        1649.850          48.563    24299369.774    96599766.086        1671.404          51.375  
E09  23617909.012   124112949.217        -605.622          47.750    23617909.557    95099540.370        -464.035          49.625    23617911.175    92681759.317        -452.265          48.750    23617910.773    93890651.885        -458.150          52.250  
E11  26959138.730   141671135.735       -2877.753          29.813    26959144.416   108553183.481       -2204.507          34.125    26959146.888   105793359.448       -2148.800          34.313    26959146.065   107173273.508       -2176.655          37.250  
E15  27587446.698   144973006.719        3196.844          38.500    27587451.592   111083236.990        2449.519          40.875    27587454.087   108259092.621        2387.190          41.438    27587453.340   109671166.849        2418.339          44.188  
E21  28616021.081   150378217.461          89.070          34.250    28616025.613   115224882.783          68.185          37.688    28616027.971   112295445.450          66.578          38.750    28616027.156   113760166.661          67.387          41.188  
E34  23884329.886   125513012.556        1341.301          47.625    23884331.420    96172320.672        1027.799          48.688    23884332.719    93727267.819        1001.680          48.563    23884332.495    94949797.288        1014.734          51.688  
E36  24107429.435   126685382.085       -1590.001          47.125    24107431.759    97070618.892       -1218.229          49.250    24107433.234    94602726.052       -1187.287          48.563    24107432.925    95836674.018       -1202.759          51.938  
> 2023 09 10 11 30 24.0000000  0  9                     
E03                                                                  28589663.488   115118729.226        2503.911          32.500    28589667.432   112191993.550        2439.976          33.875                                                                  
E04  27090806.985   142363115.967       -2448.566          38.563    27090810.142   109083421.728       -1876.244          43.188    27090811.829   106310118.972       -1828.380          42.688    27090811.456   107696771.396       -1852.313          46.000  
E05  24298946.115   127691864.293        2208.774          46.375    24298948.091    97841840.551        1692.405          48.188    24298949.668    95354345.027        1649.407          48.563    24298949.370    96598094.833        1670.903          51.313  
E09  23618024.310   124113555.063        -606.321          47.688    23618024.818    95100004.591        -464.591          49.688    23618026.452    92682211.737        -452.805          48.813    23618026.070    93891110.206        -458.700          52.250  
E11  26959686.304   141674013.070       -2877.810          30.000    26959691.939   108555388.260       -2205.028          34.063    26959694.355   105795508.159       -2149.023          34.438    26959693.620   107175450.249       -2176.984          37.188  
E15  27586838.326   144969809.937        3196.518          38.625    27586843.315   111080787.524        2449.232          40.813    27586845.862   108256705.433        2386.938          41.438    27586845.012   109668748.521        2418.080          44.125  
E21  28616004.155   150378128.691          88.249          34.438    28616008.803   115224814.751          67.684          38.063    28616011.055   112295379.163          65.834          38.813    28616010.258   113760099.501          66.758          41.438  
E34  23884074.705   125511671.408        1340.615          47.750    23884076.201    96171293.038        1027.256          48.813    23884077.510    93726266.310        1001.113          48.563    23884077.277    94948782.716        1014.188          51.688  
E36  24107732.068   126686972.226       -1590.633          47.188    24107734.371    97071837.311       -1218.754          49.250    24107735.833    94603913.495       -1187.827          48.500    24107735.520    95837876.948       -1203.289          51.938  
> 2023 09 10 11 30 25.0000000  0  9                     
E03                                                                  28589041.497   115116225.182        2504.301          33.063    28589045.633   112189553.135        2441.023          33.813                                                                  
E04  27091272.965   142365564.277       -2447.583          38.500    27091276.046   109085297.685       -1875.331          43.125    27091277.732   106311947.257       -1827.796          42.688    27091277.363   107698623.517       -1851.560          46.000  
E05  24298525.730   127689655.308        2209.577          46.375    24298527.754    97840147.953        1693.058          48.125    24298529.297    95352695.463        1650.044          48.563    24298529.011    96596423.751        1671.556          51.313  
E09  23618139.615   124114161.176        -605.554          47.688    23618140.168    95100469.010        -463.954          49.688    23618141.800    92682664.351        -452.201          48.813    23618141.416    93891568.723        -458.076          52.313  
E11  26960233.810   141676890.523       -2876.715          29.875    26960239.535   108557593.042       -2204.525          34.063    26960242.056   105797656.860       -2148.093          34.688    26960241.148   107177626.995       -2176.309          37.375  
E15  27586230.008   144966613.211        3197.499          38.438    27586235.096   111078338.079        2449.982          40.750    27586237.532   108254318.248        2387.771          41.438    27586236.679   109666330.205        2418.878          44.125  
E21  28615987.309   150378040.344          88.708          34.375    28615991.955   115224747.061          68.099          37.875    28615994.282   112295313.180          66.328          39.000    28615993.449   113760032.664          67.237          41.438  
E34  23883819.548   125510330.570        1341.381          47.625    23883821.023    96170265.644        1027.863          48.688    23883822.354    93725265.042        1001.659          48.563    23883822.131    94947768.385        1014.759          51.688  
E36  24108034.715   126688562.649       -1589.863          47.188    24108037.025    97073055.954       -1218.245          49.250    24108038.500    94605101.151       -1187.226          48.500    24108038.164    95839080.099       -1202.738          51.938  
> 2023 09 10 11 30 26.0000000  0  9                     
E03                                                                  28588419.586   115113720.957        2504.463          33.000    28588423.818   112187112.594        2440.725          33.875                                                                  
E04  27091738.827   142368012.426       -2447.931          38.563    27091741.942   109087173.549       -1875.692          43.250    27091743.642   106313775.430       -1828.132          42.813    27091743.212   107700475.535       -1851.906          46.125  
E05  24298105.397   127687446.410        2208.961          46.313    24298107.416    97838455.413        1692.659          48.188    24298108.961    95351045.960        1649.536          48.500    24298108.661    96594752.730        1671.099          51.313  
E09  23618255.030   124114767.417        -606.210          47.750    23618255.543    95100933.525        -464.457          49.688    23618257.170    92683117.058        -452.682          48.813    23618256.770    93892027.334        -458.568          52.250  
E11  26960780.823   141679767.821       -2877.355          29.813    26960787.193   108559797.668       -2204.529          34.375    26960789.578   105799805.470       -2148.339          34.688    26960788.644   107179803.616       -2176.455          37.563  
E15  27585621.544   144963416.334        3196.982          38.313    27585626.711   111075888.514        2449.776          40.688    27585629.144   108251930.978        2387.313          41.313    27585628.319   109663911.789        2418.535          44.063  
E21  28615970.550   150377952.202          88.328          34.438    28615975.127   115224679.529          67.655          38.063    28615977.481   112295247.385          65.723          38.813    28615976.681   113759966.003          66.671          41.438  
E34  23883564.382   125508989.908        1340.685          47.625    23883565.891    96169238.385        1027.293          48.750    23883567.265    93724263.905        1001.094          48.500    23883567.003    94946754.187        1014.199          51.688  
E36  24108337.371   126690153.223       -1590.491          47.063    24108339.664    97074274.694       -1218.636          49.188    24108341.183    94606288.913       -1187.719          48.500    24108340.830    95840283.349       -1203.175          51.875  
> 2023 09 10 11 30 27.0000000  0  9                     
E03                                                                  28587797.643   115111216.713        2504.181          32.750    28587801.833   112184672.033        2440.444          34.313                                                                  
E04  27092204.618   142370460.622       -2448.174          38.563    27092207.827   109089049.444       -1876.109          43.125    27092209.568   106315603.609       -1828.285          42.813    27092209.066   107702327.573       -1852.185          46.063  
E05  24297685.090   127685237.757        2208.316          46.375    24297687.115    97836763.078        1692.064          48.188    24297688.661    95349396.645        1649.086          48.563    24297688.350    96593081.906        1670.578          51.313  
E09  23618370.452   124115373.946        -606.882          47.750    23618370.951    95101398.275        -465.044          49.688    23618372.578    92683569.991        -453.190          48.813    23618372.187    93892486.175        -459.117          52.250  
E11  26961328.410   141682645.111       -2877.320          29.750    26961334.625   108562002.371       -2204.903          34.188    26961337.094   105801954.103       -2148.852          34.625    26961336.163   107181980.280       -2176.858          37.313  
E15  27585013.251   144960219.507        3196.478          38.563    27585018.372   111073439.005        2449.375          40.500    27585020.777   108249543.739        2387.010          41.375    27585019.968   109661493.414        2418.197          44.000  
E21  28615953.937   150377864.514          87.289          34.813    28615958.522   115224612.357          66.837          38.000    28615960.755   112295181.910          65.104          38.813    28615959.997   113759899.678          65.952          41.438  
E34  23883309.298   125507649.601        1339.922          47.688    23883310.846    96168211.401        1026.711          48.688    23883312.212    93723263.023        1000.572          48.563    23883311.946    94945740.254        1013.649          51.625  
E36  24108640.198   126691744.118       -1591.359          47.188    24108642.370    97075493.695       -1219.350          49.188    24108643.923    94607476.917       -1188.319          48.438    24108643.564    95841486.852       -1203.830          51.875  
> 2023 09 10 11 30 28.0000000  0  9                     
E03                                                                  28587175.539   115108712.346        2504.417          33.000    28587179.814   112182231.330        2440.788          34.188                                                                  
E04  27092670.554   142372908.630       -2447.963          38.438    27092673.711   109090925.181       -1875.706          43.188    27092675.414   106317431.660       -1827.994          42.938    27092674.915   107704179.467       -1851.848          46.125  
E05  24297264.819   127683029.121        2208.532          46.500    24297266.834    97835070.749        1692.247          48.188    24297268.354    95347747.344        1649.177          48.500    24297268.058    96591411.091        1670.707          51.313  
E09  23618485.935   124115980.542        -606.760          47.813    23618486.396    95101863.066        -464.879          49.625    23618488.001    92684022.965        -453.026          48.750    23618487.613    93892945.057        -458.947          52.188  
E11  26961875.964   141685522.209       -2876.811          30.313    26961882.201   108564206.869       -2204.337          34.188    26961884.440   105804102.567       -2148.307          34.813    26961883.673   107184156.765       -2176.370          37.500  
E15  27584404.871   144957022.483        3197.003          38.625    27584409.977   111070989.343        2449.620          40.563    27584412.390   108247156.357        2387.252          41.375    27584411.595   109659074.893        2418.433          44.000  
E21  28615937.237   150377777.016          87.320          34.813    28615941.934   115224545.313          66.990          38.125    28615944.112   112295116.568          65.135          38.688    28615943.345   113759833.487          66.047          41.438  
E34  23883054.329   125506309.397        1340.067          47.813    23883055.803    96167184.489        1026.802          48.750    23883057.182    93722262.220        1000.691          48.500    23883056.916    94944726.398        1013.742          51.625  
E36  24108942.958   126693335.084       -1591.134          47.313    24108945.112    97076712.743       -1219.125          49.250    24108946.678    94608664.974       -1188.132          48.500    24108946.315    95842690.404       -1203.623          51.938  
> 2023 09 10 11 30 29.0000000  0  9                     
E03                                                                  28586553.645   115106208.138        2504.005          33.125    28586557.626   112179790.776        2440.186          34.250                                                                  
E04  27093136.388   142375356.896       -2448.650          38.500    27093139.608   109092801.109       -1876.101          43.125    27093141.281   106319259.901       -1828.454          42.938    27093140.813   107706031.552       -1852.288          46.063  
E05  24296844.623   127680820.963        2207.732          46.500    24296846.630    97833378.782        1691.727          48.188    24296848.215    95346098.390        1648.694          48.500    24296847.851    96589740.630        1670.212          51.313  
E09  23618601.461   124116587.650        -607.519          47.813    23618601.914    95102328.256        -465.466          49.625    23618603.550    92684476.326        -453.635          48.688    23618603.142    93893404.333        -459.548          52.188  
E11  26962423.586   141688399.576       -2877.805          30.000    26962429.764   108566411.587       -2204.872          34.063    26962431.976   105806251.229       -2148.906          34.750    26962431.236   107186333.452       -2176.901          37.375  
E15  27583796.594   144953825.711        3196.504          38.813    27583801.729   111068539.868        2449.310          40.625    27583804.105   108244769.161        2387.043          41.188    27583803.257   109656656.557        2418.183          44.000  
E21  28615920.909   150377690.184          86.208          34.500    28615925.432   115224478.777          66.110          38.125    28615927.532   112295051.727          64.547          38.875    28615926.809   113759767.797          65.349          41.563  
E34  23882799.414   125504969.764        1339.225          47.750    23882800.886    96166158.021        1026.146          48.750    23882802.258    93721261.843        1000.114          48.500    23882801.989    94943712.974        1013.135          51.625  
E36  24109245.753   126694926.592       -1592.002          47.313    24109247.970    97077932.212       -1219.850          49.188    24109249.512    94609853.438       -1188.776          48.500    24109249.164    95843894.371       -1204.313          51.875  
> 2023 09 10 11 30 30.0000000  0  9                     
E03                                                                  28585931.617   115103703.977        2504.778          33.000    28585935.547   112177350.321        2440.882          34.063                                                                  
E04  27093602.506   142377805.292       -2447.652          38.313    27093605.550   109094677.152       -1875.474          43.063    27093607.231   106321088.255       -1827.913          42.813    27093606.743   107707883.750       -1851.688          46.000  
E05  24296424.543   127678613.163        2208.320          46.375    24296426.490    97831687.094        1692.115          48.125    24296428.087    95344449.716        1649.133          48.438    24296427.710    96588070.449        1670.628          51.313  
E09  23618717.110   124117195.174        -607.055          47.625    23618717.510    95102793.761        -465.151          49.563    23618719.175    92684929.996        -453.290          48.688    23618718.751    93893863.920        -459.221          52.188  
E11  26962971.397   141691277.004       -2876.345          29.938    26962977.113   108568616.412       -2204.419          34.125    26962979.594   105808400.000       -2148.447          34.625    26962978.876   107188510.249       -2176.419          37.375  
E15  27583188.325   144950629.111        3197.282          38.313    27583193.344   111066090.533        2449.760          40.625    27583195.867   108242382.088        2387.508          41.125    27583194.956   109654238.352        2418.647          43.938  
E21  28615904.346   150377603.857          86.971          34.500    28615909.010   115224412.642          66.563          37.813    28615911.085   112294987.276          64.746          38.813    28615910.380   113759702.505          65.646          41.375  
E34  23882544.576   125503630.586        1339.672          47.563    23882546.078    96165131.897        1026.484          48.625    23882547.410    93720261.811        1000.403          48.438    23882547.155    94942699.897        1013.436          51.563  
E36  24109548.648   126696518.522       -1591.400          47.250    24109550.930    97079152.001       -1219.381          49.250    24109552.464    94611042.218       -1188.375          48.438    24109552.104    95845098.655       -1203.876          51.938  
> 2023 09 10 11 30 31.0000000  0  9                     
E03                                                                  28585309.699   115101199.923        2504.202          33.250    28585313.571   112174909.899        2440.400          33.813                                                                  
E04  27094068.363   142380253.848       -2448.515          38.438    27094071.488   109096553.316       -1876.191          43.063    27094073.186   106322916.714       -1828.481          42.875    27094072.690   107709736.062       -1852.339          46.063  
E05  24296004.461   127676405.731        2207.293          46.438    24296006.391    97829995.697        1691.259          48.063    24296008.032    95342801.314        1648.345          48.438    24296007.642    96586400.549        1669.803          51.250  
E09  23618832.804   124117803.107        -608.109          47.750    23618833.174    95103259.577        -465.942          49.625    23618834.848    92685383.968        -454.038          48.688    23618834.432    93894323.814        -459.997          52.188  
E11  26963519.356   141694154.669       -2877.946          30.063    26963524.786   108570821.355       -2205.239          33.938    26963527.136   105810548.862       -2149.084          34.625    26963526.485   107190687.152       -2177.156          37.313  
E15  27582579.934   144947432.670        3196.332          38.438    27582585.103   111063641.305        2449.221          40.688    27582587.490   108239995.138        2386.927          41.250    27582586.677   109651820.264        2418.055          44.000  
E21  28615887.985   150377518.112          85.492          34.625    28615892.700   115224346.933          65.406          38.000    28615894.818   112294923.239          63.964          38.688    28615894.036   113759637.630          64.693          41.313  
E34  23882289.865   125502291.879        1338.540          47.625    23882291.326    96164106.136        1025.572          48.750    23882292.654    93719262.126         999.518          48.438    23882292.411    94941687.175        1012.542          51.625  
E36  24109851.684   126698110.887       -1592.550          47.313    24109853.936    97080372.127       -1220.291          49.250    24109855.489    94612231.319       -1189.225          48.500    24109855.114    95846303.270       -1204.765          51.938  
> 2023 09 10 11 30 32.0000000  0  9                     
E03  28584677.655   150213485.3001       3268.279          31.375    28584687.794   115098695.894        2504.363          33.438    28584691.725   112172469.535        2440.646          33.813                                                                  
E04  27094534.284   142382702.437       -2448.179          38.750    27094537.451   109098429.511       -1875.901          43.000    27094539.144   106324745.205       -1828.188          42.813    27094538.647   107711588.404       -1852.051          46.000  
E05  24295584.465   127674198.564        2207.420          46.500    24295586.377    97828304.488        1691.377          48.125    24295588.017    95341153.108        1648.363          48.313    24295587.622    96584730.842        1669.875          51.188  
E09  23618948.500   124118411.343        -608.026          47.688    23618948.909    95103725.634        -465.940          49.563    23618950.592    92685838.179        -454.107          48.563    23618950.180    93894783.949        -460.024          52.125  
E11  26964067.060   141697032.334       -2877.407          29.875    26964072.612   108573026.287       -2204.612          34.188    26964074.749   105812697.746       -2148.579          34.563    26964074.102   107192864.057       -2176.558          37.375  
E15  27581971.805   144944236.296        3196.609          38.625    27581976.882   111061192.139        2449.419          40.625    27581979.251   108237608.228        2387.154          41.063    27581978.433   109649402.224        2418.288          43.938  
E21  28615871.611   150377432.786          85.399          34.875    28615876.509   115224281.564          65.504          37.750    28615878.519   112294859.505          63.977          38.563    28615877.795   113759573.077          64.777          41.125  
E34  23882035.215   125500953.526        1338.475          47.750    23882036.649    96163080.643        1025.604          48.750    23882037.974    93718262.706         999.586          48.375    23882037.721    94940674.717        1012.591          51.563  
E36  24110154.812   126699703.580       -1592.478          47.250    24110156.988    97081592.497       -1220.257          49.188    24110158.571    94613420.671       -1189.264          48.438    24110158.196    95847508.131       -1204.755          51.875  
> 2023 09 10 11 30 33.0000000  0  9                     
E03  28584056.229   150210217.072        3268.103          31.250    28584065.968   115096191.630        2504.356          32.938    28584069.787   112170028.950        2440.564          33.813    28584068.588   113633115.3311       2472.474          36.375  
E04  27095000.149   142385150.828       -2448.664          38.625    27095003.344   109100305.549       -1876.270          43.063    27095005.163   106326573.546       -1828.487          42.750    27095004.572   107713440.594       -1852.383          46.000  
E05  24295164.431   127671991.414        2206.768          46.563    24295166.357    97826613.295        1690.934          48.125    24295168.001    95339504.911        1647.922          48.375    24295167.607    96583061.147        1669.437          51.250  
E09  23619064.201   124119019.638        -608.664          47.625    23619064.649    95104191.728        -466.411          49.625    23619066.365    92686292.416        -454.505          48.563    23619065.928    93895244.113        -460.450          52.125  
E11  26964614.592   141699909.770       -2878.134          30.188    26964620.100   108575231.065       -2204.756          34.063    26964622.358   105814846.473       -2148.802          34.313    26964621.697   107195040.814       -2176.784          37.188  
E15  27581363.586   144941039.701        3196.378          38.500    27581368.554   111058742.807        2449.142          40.750    27581371.020   108235221.168        2386.938          41.188    27581370.154   109646984.030        2418.052          44.063  
E21  28615855.052   150377347.648          84.739          34.500    28615860.262   115224216.342          64.802          37.688    28615862.373   112294795.957          63.223          38.500    28615861.626   113759508.694          64.035          41.125  
E34  23881780.525   125499615.269        1337.891          47.688    23881781.998    96162055.229        1025.086          48.750    23881783.305    93717263.361         999.113          48.313    23881783.058    94939662.338        1012.101          51.563  
E36  24110457.875   126701296.344       -1593.121          47.313    24110460.062    97082812.924       -1220.695          49.250    24110461.657    94614610.067       -1189.629          48.438    24110461.287    95848713.041       -1205.161          51.938  
> 2023 09 10 11 30 34.0000000  0  9                     
E03  28583433.761   150206948.748        3267.675          31.813    28583443.968   115093687.353        2503.881          33.063    28583447.903   112167588.342        2440.140          33.750    28583446.634   113630642.890        2472.057          36.375  
E04  27095466.007   142387599.189       -2448.995          38.500    27095469.294   109102181.546       -1876.484          42.938    27095471.072   106328401.855       -1828.823          42.875    27095470.488   107715292.747       -1852.649          46.000  
E05  24294744.476   127669784.446        2206.227          46.500    24294746.387    97824922.239        1690.487          48.125    24294748.012    95337856.852        1647.459          48.313    24294747.628    96581391.589        1668.976          51.250  
E09  23619179.948   124119628.159        -609.311          47.813    23619180.453    95104657.991        -466.821          49.625    23619182.161    92686746.835        -455.021          48.625    23619181.734    93895704.455        -460.916          52.125  
E11  26965162.218   141702787.192       -2878.237          29.813    26965167.692   108577435.826       -2205.009          34.438    26965170.066   105816995.192       -2149.181          34.313    26965169.252   107197217.550       -2177.095          37.375  
E15  27580755.177   144937843.074        3196.032          38.375    27580760.291   111056293.449        2448.872          40.688    27580762.686   108232834.082        2386.652          41.188    27580761.861   109644565.807        2417.767          44.000  
E21  28615838.999   150377262.875          83.917          34.688    28615844.060   115224151.377          64.328          38.063    28615846.335   112294732.649          62.696          38.625    28615845.484   113759444.558          63.518          41.313  
E34  23881525.930   125498277.296        1337.217          47.750    23881527.405    96161030.021        1024.680          48.750    23881528.718    93716264.227         998.539          48.375    23881528.444    94938650.167        1011.609          51.625  
E36  24110760.995   126702889.354       -1593.787          47.250    24110763.192    97084033.539       -1221.182          49.250    24110764.811    94615799.652       -1190.164          48.438    24110764.423    95849918.141       -1205.673          51.875  
> 2023 09 10 11 30 35.0000000  0  9                     
E03  28582812.273   150203680.513        3267.701          31.250    28582821.987   115091183.141        2503.935          33.250    28582826.049   112165147.773        2440.549          33.625    28582824.690   113628170.495        2472.281          36.438  
E04  27095932.024   142390047.669       -2448.765          38.625    27095935.168   109104057.658       -1876.242          42.813    27095936.974   106330230.271       -1828.715          42.813    27095936.431   107717145.011       -1852.479          45.875  
E05  24294324.547   127667577.805        2206.314          46.625    24294326.510    97823231.446        1690.583          48.188    24294328.076    95336209.038        1647.577          48.375    24294327.711    96579722.286        1669.082          51.250  
E09  23619295.815   124120237.063        -609.298          47.750    23619296.326    95105124.556        -466.891          49.688    23619298.030    92687201.534        -454.950          48.625    23619297.603    93896165.087        -460.921          52.188  
E11  26965709.791   141705664.661       -2877.287          30.313    26965715.204   108579640.670       -2204.706          34.125    26965717.561   105819143.992       -2148.980          34.000    26965716.810   107199394.370       -2176.833          37.000  
E15  27580146.883   144934646.591        3196.315          38.375    27580152.102   111053844.200        2449.022          40.688    27580154.383   108230447.105        2386.706          41.188    27580153.578   109642147.695        2417.871          44.000  
E21  28615823.171   150377178.610          83.726          34.625    28615827.982   115224086.819          64.156          38.063    28615830.318   112294669.720          62.639          38.750    28615829.462   113759380.813          63.408          41.438  
E34  23881271.431   125496939.755        1337.127          47.750    23881272.900    96160005.159        1024.558          48.813    23881274.154    93715265.414         998.488          48.313    23881273.919    94937638.329        1011.524          51.625  
E36  24111064.169   126704482.766       -1593.789          47.188    24111066.419    97085254.465       -1221.187          49.313    24111068.033    94616989.536       -1190.142          48.500    24111067.630    95851123.546       -1205.661          51.938  
> 2023 09 10 11 30 36.0000000  0  9                     
E03  28582190.516   150200412.569        3267.161          30.938    28582200.173   115088679.126        2503.294          33.125    28582204.193   112162707.453        2439.618          34.000    28582202.830   113625698.335        2471.465          36.500  
E04  27096397.861   142392496.430       -2449.434          38.438    27096401.158   109105933.993       -1877.006          42.938    27096402.977   106332058.899       -1829.359          42.875    27096402.424   107718997.492       -1853.181          45.938  
E05  24293904.760   127665371.703        2205.012          46.688    24293906.687    97821541.057        1689.569          48.188    24293908.263    95334561.626        1646.590          48.375    24293907.897    96578053.386        1668.078          51.313  
E09  23619411.789   124120846.536        -610.510          47.750    23619412.290    95105591.557        -467.862          49.750    23619414.027    92687656.658        -455.860          48.563    23619413.578    93896626.150        -461.860          52.188  
E11  26966257.719   141708542.510       -2879.108          29.813    26966262.768   108581845.717       -2205.728          34.250    26966265.258   105821292.969       -2149.643          34.375    26966264.405   107201571.387       -2177.688          37.313  
E15  27579538.774   144931450.425        3195.283          38.438    27579543.956   111051395.189        2448.295          40.625    27579546.115   108228060.355        2386.072          41.125    27579545.365   109639729.816        2417.193          43.938  
E21  28615807.283   150377095.061          82.275          34.688    28615811.962   115224022.800          63.032          37.875    28615814.369   112294607.336          61.481          38.688    28615813.574   113759317.612          62.258          41.313  
E34  23881017.061   125495602.833        1335.922          47.813    23881018.491    96158980.764        1023.536          48.750    23881019.731    93714267.063         997.586          48.375    23881019.510    94936626.957        1010.558          51.563  
E36  24111367.457   126706076.768       -1595.050          47.250    24111369.749    97086475.844       -1222.253          49.313    24111371.371    94618179.863       -1191.155          48.500    24111370.953    95852329.400       -1206.704          51.938  
> 2023 09 10 11 30 37.0000000  0  9                     
E03  28581568.732   150197145.453        3267.576          30.625    28581578.535   115086175.765        2503.670          33.000    28581582.589   112160267.698        2440.306          33.938    28581581.150   113623226.774        2472.008          36.438  
E04  27096863.888   142394946.107       -2449.004          38.375    27096867.317   109107810.999       -1876.446          42.875    27096869.078   106333888.183       -1828.765          42.813    27096868.586   107720850.637       -1852.604          45.938  
E05  24293485.157   127663166.692        2205.541          46.563    24293487.056    97819851.502        1689.985          48.188    24293488.663    95332915.030        1646.990          48.375    24293488.289    96576385.310        1668.493          51.250  
E09  23619528.005   124121457.146        -610.041          47.563    23619528.500    95106059.423        -467.405          49.688    23619530.238    92688112.634        -455.561          48.625    23619529.774    93897088.071        -461.485          52.188  
E11  26966805.163   141711421.195       -2877.900          30.563    26966810.372   108584051.480       -2205.094          34.063    26966813.051   105823442.642       -2149.192          34.375    26966812.219   107203749.102       -2177.158          37.250  
E15  27578930.694   144928255.155        3195.917          38.313    27578935.920   111048946.863        2448.825          40.813    27578938.134   108225674.278        2386.582          41.063    27578937.305   109637312.614        2417.695          44.000  
E21  28615791.463   150377012.743          82.894          34.750    28615796.279   115223959.743          63.469          38.063    28615798.728   112294545.865          61.872          38.813    28615797.937   113759255.347          62.681          41.500  
E34  23880762.886   125494267.105        1336.236          47.625    23880764.339    96157957.282        1023.873          48.750    23880765.547    93713269.608         997.856          48.438    23880765.330    94935616.488        1010.868          51.625  
E36  24111670.946   126707671.925       -1594.600          47.125    24111673.305    97087698.106       -1221.825          49.188    24111674.933    94619371.051       -1190.819          48.500    24111674.505    95853536.125       -1206.322          51.875  
> 2023 09 10 11 30 38.0000000  0  9                     
E03  28580947.270   150193878.365        3266.814          30.813    28580956.733   115083672.417        2502.935          33.188    28580960.883   112157827.985        2439.701          33.938    28580959.424   113620755.245        2471.297          36.500  
E04  27097330.007   142397395.830       -2449.875          38.313    27097333.501   109109688.070       -1877.409          42.813    27097335.256   106335717.528       -1829.628          42.938    27097334.771   107722703.845       -1853.518          45.938  
E05  24293065.674   127660961.965        2204.267          46.563    24293067.489    97818162.170        1688.973          48.188    24293069.143    95331268.645        1646.048          48.313    24293068.735    96574717.452        1667.513          51.250  
E09  23619644.330   124122068.084        -611.448          47.563    23619644.744    95106527.546        -468.509          49.688    23619646.528    92688568.859        -456.624          48.563    23619646.031    93897550.244        -462.566          52.125  
E11  26967352.994   141714299.932       -2878.950          29.875    26967358.265   108586257.248       -2206.094          33.875    26967360.906   105825592.348       -2149.970          34.250    26967360.078   107205926.842       -2178.036          37.063  
E15  27578322.503   144925059.949        3194.899          38.063    27578327.896   111046498.596        2447.968          40.750    27578330.086   108223288.247        2385.644          41.125    27578329.276   109634895.465        2416.794          44.000  
E21  28615776.129   150376930.924          81.243          34.875    28615780.742   115223897.032          62.151          38.188    28615783.131   112294484.767          60.551          38.750    28615782.371   113759193.443          61.354          41.500  
E34  23880508.762   125492931.750        1334.863          47.625    23880510.251    96156934.092        1022.759          48.875    23880511.439    93712272.426         996.806          48.375    23880511.230    94934606.302        1009.782          51.625  
E36  24111974.479   126709267.432       -1596.072          47.125    24111976.916    97088920.632       -1222.920          49.250    24111978.540    94620562.500       -1191.895          48.438    24111978.124    95854743.113       -1207.414          51.875  
> 2023 09 10 11 30 39.0000000  0  9                     
E03  28580325.760   150190611.137        3267.020          30.750    28580335.014   115081168.942        2503.684          33.438    28580339.061   112155388.185        2439.906          33.438    28580337.654   113618283.605        2471.802          36.438  
E04  27097796.196   142399845.480       -2449.617          38.313    27097799.668   109111565.044       -1876.839          42.750    27097801.416   106337546.788       -1829.201          42.813    27097800.919   107724556.963       -1853.010          45.875  
E05  24292646.111   127658757.358        2204.625          46.563    24292647.969    97816472.930        1689.240          48.188    24292649.604    95329622.350        1646.306          48.375    24292649.198    96573049.684        1667.771          51.250  
E09  23619760.643   124122679.189        -611.132          47.563    23619761.008    95106995.798        -468.306          49.625    23619762.809    92689025.200        -456.393          48.625    23619762.316    93898012.541        -462.349          52.188  
E11  26967900.189   141717178.559       -2878.393          29.500    26967906.120   108588462.980       -2205.588          34.125    26967908.632   105827741.973       -2149.658          34.125    26967907.892   107208104.521       -2177.645          37.125  
E15  27577714.484   144921864.660        3195.336          38.188    27577719.727   111044050.255        2448.508          40.813    27577722.024   108220902.167        2386.066          41.250    27577721.238   109632478.254        2417.286          44.063  
E21  28615760.563   150376849.397          81.355          34.500    28615765.305   115223834.554          62.506          38.063    28615767.503   112294423.874          60.900          38.625    28615766.859   113759131.757          61.721          41.313  
E34  23880254.674   125491596.610        1335.125          47.688    23880256.172    96155911.066        1023.010          48.813    23880257.409    93711275.413         996.965          48.375    23880257.162    94933596.283        1009.982          51.625  
E36  24112278.118   126710863.120       -1595.645          47.188    24112280.571    97090143.309       -1222.687          49.188    24112282.226    94621754.081       -1191.575          48.563    24112281.765    95855950.241       -1207.132          51.938  
> 2023 09 10 11 30 40.0000000  0  9                     
E03  28579703.957   150187343.828        3267.250          30.188    28579713.299   115078665.452        2503.486          33.188    28579717.280   112152948.331        2439.834          33.375    28579715.893   113615811.931        2471.672          36.250  
E04  27098262.157   142402295.054       -2449.773          38.438    27098265.732   109113442.004       -1877.118          42.750    27098267.554   106339376.017       -1829.355          42.875    27098267.054   107726410.057       -1853.227          45.875  
E05  24292226.599   127656552.922        2204.189          46.563    24292228.463    97814783.819        1688.891          48.188    24292230.089    95327976.184        1645.975          48.375    24292229.697    96571382.046        1667.438          51.250  
E09  23619876.946   124123290.494        -611.541          47.500    23619877.383    95107464.204        -468.632          49.688    23619879.155    92689481.697        -456.695          48.625    23619878.645    93898474.992        -462.662          52.188  
E11  26968447.540   141720057.175       -2878.651          29.813    26968453.840   108590668.635       -2205.912          34.250    26968456.519   105829891.533       -2149.698          34.125    26968455.661   107210282.130       -2177.845          37.125  
E15  27577106.367   144918669.332        3195.042          38.313    27577111.638   111041601.888        2448.278          40.688    27577113.976   108218516.037        2385.977          40.938    27577113.191   109630061.007        2417.118          43.875  
E21  28615745.012   150376768.176          80.920          34.563    28615749.948   115223772.348          61.787          38.063    28615752.027   112294363.244          60.338          38.625    28615751.400   113759070.340          61.066          41.375  
E34  23880000.642   125490261.735        1334.586          47.500    23880002.153    96154888.240        1022.590          48.813    23880003.378    93710278.585         996.596          48.375    23880003.142    94932586.456        1009.584          51.563  
E36  24112581.816   126712459.047       -1596.231          47.125    24112584.247    97091366.158       -1223.122          49.188    24112585.925    94622945.847       -1192.040          48.563    24112585.468    95857157.548       -1207.581          51.875  
> 2023 09 10 11 30 41.0000000  0  9                     
E03  28579082.004   150184076.487        3266.950          30.438    28579091.631   115076161.848        2503.539          33.000    28579095.592   112150508.370        2440.047          33.688    28579094.091   113613340.154        2471.806          36.313  
E04  27098728.446   142404744.590       -2449.404          38.313    27098731.795   109115318.922       -1876.939          42.688    27098733.684   106341205.220       -1829.073          43.000    27098733.190   107728263.117       -1852.997          45.938  
E05  24291807.155   127654348.671        2204.213          46.438    24291809.015    97813094.846        1688.967          48.188    24291810.612    95326330.153        1646.006          48.375    24291810.237    96569714.543        1667.495          51.250  
E09  23619993.313   124123902.046        -611.659          47.438    23619993.764    95107932.788        -468.622          49.625    23619995.516    92689938.369        -456.728          48.625    23619995.019    93898937.620        -462.672          52.188  
E11  26968995.290   141722935.692       -2878.439          29.438    26969001.556   108592874.249       -2205.610          34.000    26969004.193   105832041.080       -2149.406          34.250    26969003.449   107212459.704       -2177.490          37.125  
E15  27576498.258   144915473.970        3195.464          38.313    27576503.523   111039153.500        2448.392          40.813    27576505.932   108216129.896        2386.191          41.188    27576505.136   109627643.741        2417.302          44.063  
E21  28615729.659   150376687.356          80.551          34.688    28615734.473   115223710.412          61.795          38.000    28615736.725   112294302.886          60.280          38.813    28615736.031   113759009.194          61.032          41.438  
E34  23879746.714   125488927.144        1334.492          47.500    23879748.172    96153865.626        1022.557          48.750    23879749.416    93709281.975         996.535          48.438    23879749.180    94931576.844        1009.543          51.625  
E36  24112885.614   126714055.215       -1596.198          47.063    24112887.990    97092589.191       -1223.067          49.125    24112889.657    94624137.784       -1192.020          48.625    24112889.213    95858365.033       -1207.543          51.938  
> 2023 09 10 11 30 42.0000000  0  9                     
E03  28578460.380   150180808.925        3267.330          29.938    28578469.748   115073658.190        2503.335          33.063    28578473.752   112148068.379        2439.658          33.500    28578472.290   113610868.328        2471.507          36.313  
E04  27099194.656   142407194.033       -2449.875          38.250    27099197.896   109117195.765       -1877.116          42.688    27099199.843   106343034.349       -1829.401          43.000    27099199.321   107730116.103       -1853.261          45.875  
E05  24291387.669   127652144.526        2203.630          46.375    24291389.586    97811405.964        1688.494          48.250    24291391.174    95324684.206        1645.606          48.438    24291390.803    96568047.128        1667.059          51.313  
E09  23620109.781   124124513.739        -612.180          47.375    23620110.181    95108401.490        -469.129          49.625    23620111.895    92690395.158        -457.184          48.625    23620111.425    93899400.365        -463.166          52.125  
E11  26969543.017   141725814.132       -2878.669          29.625    26969549.420   108595079.770       -2205.871          34.313    26969552.039   105834190.534       -2149.614          34.125    26969551.218   107214637.195       -2177.756          37.188  
E15  27575890.269   144912278.517        3194.969          38.063    27575895.370   111036705.031        2448.124          40.625    27575897.866   108213743.690        2385.796          41.000    27575897.058   109625226.405        2416.961          43.875  
E21  28615714.148   150376606.823          79.984          34.563    28615719.234   115223648.707          61.120          38.000    28615721.345   112294242.736          59.654          38.688    28615720.712   113758948.262          60.399          41.375  
E34  23879492.797   125487592.746        1333.867          47.375    23879494.253    96152843.170        1022.034          48.750    23879495.488    93708285.512         996.054          48.375    23879495.250    94930567.384        1009.043          51.563  
E36  24113189.334   126715651.561       -1596.914          46.938    24113191.755    97093812.363       -1223.550          49.125    24113193.405    94625329.856       -1192.426          48.563    24113192.983    95859572.656       -1207.992          51.875  
> 2023 09 10 11 30 43.0000000  0  9                     
E03  28577838.458   150177541.580        3267.395          30.250    28577848.226   115071154.604        2503.724          33.313    28577851.912   112145628.453        2439.974          33.563    28577850.484   113608396.576        2471.813          36.438  
E04  27099660.852   142409643.679       -2449.591          38.313    27099664.004   109119072.757       -1877.075          42.563    27099666.003   106344863.626       -1829.367          42.938    27099665.483   107731969.238       -1853.221          45.813  
E05  24290968.277   127649940.804        2203.587          46.375    24290970.218    97809717.403        1688.359          48.188    24290971.801    95323038.576        1645.474          48.313    24290971.446    96566380.034        1666.915          51.313  
E09  23620226.255   124125125.903        -612.317          47.313    23620226.675    95108870.550        -469.179          49.563    23620228.389    92690852.291        -457.220          48.563    23620227.919    93899863.461        -463.203          52.125  
E11  26970090.735   141728692.724       -2878.766          29.375    26970097.300   108597285.437       -2205.626          34.063    26970099.745   105836340.135       -2149.723          33.625    26970098.960   107216814.829       -2177.616          36.813  
E15  27575282.282   144909083.280        3195.116          38.063    27575287.234   111034256.734        2448.222          40.563    27575289.815   108211357.623        2386.108          41.063    27575289.002   109622809.224        2417.163          43.813  
E21  28615698.936   150376526.862          79.600          34.375    28615704.040   115223587.446          60.972          38.125    28615706.115   112294183.031          59.549          38.688    28615705.517   113758887.779          60.287          41.375  
E34  23879238.919   125486258.871        1333.681          47.438    23879240.415    96151821.108        1021.960          48.750    23879241.639    93707289.438         995.951          48.375    23879241.419    94929558.316        1008.961          51.625  
E36  24113493.249   126717248.386       -1597.018          46.938    24113495.627    97095035.905       -1223.670          49.063    24113497.257    94626522.296       -1192.605          48.688    24113496.843    95860780.646       -1208.132          51.938  
> 2023 09 10 11 30 44.0000000  0  9                     
E03  28577216.860   150174274.218        3267.446          30.313    28577226.485   115068651.035        2503.650          33.188    28577230.123   112143188.555        2440.059          34.063    28577228.740   113605924.842        2471.850          36.563  
E04  27100127.041   142412093.340       -2449.549          38.313    27100130.164   109120949.768       -1876.868          42.688    27100132.154   106346692.909       -1829.136          43.063    27100131.650   107733822.384       -1852.998          45.938  
E05  24290548.946   127647737.322        2203.648          46.438    24290550.928    97808029.013        1688.514          48.188    24290552.473    95321393.111        1645.566          48.438    24290552.137    96564713.107        1667.037          51.313  
E09  23620342.815   124125738.344        -612.336          47.375    23620343.226    95109339.823        -469.243          49.625    23620344.915    92691309.634        -457.302          48.625    23620344.458    93900326.771        -463.274          52.188  
E11  26970638.306   141731571.316       -2878.103          29.625    26970645.186   108599491.131       -2205.498          33.750    26970647.654   105838489.756       -2149.558          34.188    26970646.770   107218992.485       -2177.555          36.938  
E15  27574674.290   144905888.065        3195.354          38.000    27574679.189   111031808.463        2448.386          40.688    27574681.662   108208971.590        2386.311          41.000    27574680.978   109620392.070        2417.365          43.875  
E21  28615683.810   150376447.320          79.392          34.500    28615688.798   115223526.493          60.923          37.938    28615690.873   112294123.648          59.304          38.563    28615690.376   113758827.614          60.113          41.250  
E34  23878985.242   125484925.327        1333.573          47.375    23878986.663    96150799.306        1021.800          48.750    23878987.876    93706293.608         995.844          48.438    23878987.654    94928549.500        1008.815          51.625  
E36  24113797.204   126718845.501       -1597.004          46.875    24113799.537    97096259.671       -1223.703          49.063    24113801.197    94627714.947       -1192.623          48.563    24113800.771    95861988.855       -1208.162          51.875  
> 2023 09 10 11 30 45.0000000  0  9                     
E03  28576594.973   150171006.965        3267.090          30.250    28576604.861   115066147.574        2503.269          33.063    28576608.413   112140748.704        2439.548          34.063    28576606.988   113603453.180        2471.450          36.563  
E04  27100593.273   142414543.163       -2449.941          38.250    27100596.364   109122826.912       -1877.352          42.625    27100598.387   106348522.319       -1829.548          43.125    27100597.847   107735675.661       -1853.442          45.938  
E05  24290129.663   127645534.218        2202.813          46.375    24290131.690    97806340.922        1687.888          48.188    24290133.199    95319747.941        1644.912          48.563    24290132.891    96563046.476        1666.392          51.375  
E09  23620459.441   124126351.206        -613.113          47.438    23620459.867    95109809.419        -469.818          49.563    23620461.525    92691767.287        -457.865          48.750    23620461.083    93900790.394        -463.839          52.188  
E11  26971186.173   141734450.104       -2878.960          29.500    26971193.115   108601696.952       -2206.037          33.875    26971195.388   105840639.484       -2150.028          34.500    26971194.575   107221170.259       -2178.016          37.125  
E15  27574066.411   144902693.022        3194.921          38.125    27574071.165   111029360.301        2448.140          40.688    27574073.602   108206585.698        2385.651          41.125    27574072.989   109617975.043        2416.892          43.938  
E21  28615668.812   150376368.328          78.602          34.313    28615673.786   115223465.989          60.098          38.000    28615675.817   112294064.670          58.555          38.688    28615675.351   113758767.872          59.323          41.375  
E34  23878731.571   125483592.249        1332.774          47.375    23878732.997    96149777.855        1021.248          48.688    23878734.220    93705298.128         995.261          48.563    23878733.988    94927541.036        1008.250          51.688  
E36  24114101.255   126720443.070       -1597.827          46.875    24114103.555    97097483.778       -1224.277          49.063    24114105.209    94628907.930       -1193.180          48.813    24114104.778    95863197.400       -1208.732          52.000  
> 2023 09 10 11 30 46.0000000  0  9                     
E03  28575973.216   150167739.579        3266.914          30.188    28575982.954   115063643.986        2503.307          33.375    28575986.629   112138308.782        2439.538          34.125    28575985.218   113600981.427        2471.453          36.688  
E04  27101059.459   142416992.873       -2449.943          38.250    27101062.584   109124703.957       -1877.379          42.625    27101064.544   106350351.650       -1829.601          43.063    27101064.028   107737528.849       -1853.503          45.938  
E05  24289710.445   127643331.215        2202.576          46.313    24289712.460    97804652.916        1687.686          48.125    24289713.953    95318102.845        1644.767          48.438    24289713.663    96561379.925        1666.218          51.250  
E09  23620576.074   124126964.219        -613.482          47.375    23620576.554    95110279.133        -470.076          49.625    23620578.131    92692225.059        -458.091          48.750    23620577.734    93901254.138        -464.090          52.188  
E11  26971733.888   141737328.738       -2878.719          29.625    26971740.880   108603902.669       -2206.357          34.188    26971743.161   105842789.096       -2149.629          34.063    26971742.389   107223347.926       -2177.999          37.000  
E15  27573458.462   144899497.891        3194.789          38.000    27573463.170   111026912.086        2448.010          40.688    27573465.625   108204199.717        2385.646          41.000    27573464.969   109615557.945        2416.832          43.938  
E21  28615653.994   150376289.623          78.290          34.375    28615658.802   115223405.673          59.854          37.938    28615660.787   112294005.890          58.427          38.688    28615660.381   113758708.323          59.156          41.375  
E34  23878477.929   125482259.379        1332.395          47.313    23878479.372    96148756.568        1020.933          48.750    23878480.569    93704302.806         994.929          48.500    23878480.353    94926532.730        1007.936          51.625  
E36  24114405.278   126722040.808       -1598.166          46.813    24114407.581    97098708.020       -1224.609          49.000    24114409.278    94630101.043       -1193.426          48.688    24114408.817    95864406.078       -1209.021          51.938  
> 2023 09 10 11 30 47.0000000  0  9                     
E03  28575351.173   150164472.219        3266.845          30.188    28575361.103   115061140.467        2502.891          33.375    28575364.805   112135868.877        2439.506          34.250    28575363.488   113598509.715        2471.217          36.813  
E04  27101525.666   142419442.713       -2450.659          38.125    27101528.796   109126581.086       -1877.619          42.625    27101530.753   106352181.055       -1829.873          43.188    27101530.230   107739382.118       -1853.760          46.000  
E05  24289291.230   127641128.556        2201.879          46.313    24289293.289    97802965.162        1687.180          48.188    24289294.778    95316458.007        1644.238          48.375    24289294.511    96559713.628        1665.706          51.250  
E09  23620692.771   124127577.617        -614.284          47.375    23620693.276    95110749.136        -470.684          49.625    23620694.851    92692683.112        -458.663          48.688    23620694.462    93901718.165        -464.671          52.188  
E11  26972282.006   141740207.490       -2878.878          29.563    26972288.790   108606108.438       -2206.183          34.000    26972291.042   105844938.810       -2150.001          34.125    26972290.203   107225525.667       -2178.100          37.000  
E15  27572850.337   144896302.872        3194.341          37.875    27572855.199   111024463.960        2447.615          40.500    27572857.650   108201813.827        2385.403          41.000    27572856.958   109613140.936        2416.521          43.813  
E21  28615639.217   150376211.432          77.309          34.313    28615643.870   115223345.770          59.284          37.750    28615645.953   112293947.513          57.679          38.563    28615645.503   113758649.182          58.504          41.125  
E34  23878224.376   125480926.940        1331.598          47.313    23878225.819    96147735.603        1020.342          48.688    23878227.003    93703307.798         994.349          48.500    23878226.794    94925524.744        1007.344          51.625  
E36  24114709.354   126723638.946       -1598.975          46.813    24114711.717    97099932.563       -1225.198          49.000    24114713.417    94631294.460       -1194.062          48.750    24114712.941    95865615.057       -1209.626          51.938  
> 2023 09 10 11 30 48.0000000  0  9                     
E03  28574729.290   150161204.709        3268.031          30.500    28574739.078   115058636.744        2504.096          33.438    28574743.025   112133428.840        2440.306          34.313    28574741.696   113596037.837        2472.221          36.938  
E04  27101991.780   142421892.337       -2449.235          38.125    27101995.051   109128458.078       -1876.748          42.625    27101996.906   106354010.321       -1829.002          43.188    27101996.401   107741235.246       -1852.872          46.000  
E05  24288872.100   127638925.920        2202.841          46.375    24288874.127    97801277.434        1687.925          48.063    24288875.618    95314813.183        1645.044          48.375    24288875.354    96558047.352        1666.483          51.188  
E09  23620809.511   124128191.073        -613.206          47.375    23620810.043    95111219.186        -469.843          49.500    23620811.633    92693141.221        -458.026          48.750    23620811.193    93902182.244        -463.931          52.188  
E11  26972829.915   141743086.078       -2878.144          30.063    26972836.597   108608314.092       -2205.375          34.250    26972838.850   105847088.379       -2149.141          33.500    26972838.012   107227703.275       -2177.245          36.875  
E15  27572242.273   144893107.673        3195.572          38.000    27572247.268   111022015.695        2448.601          40.375    27572249.636   108199427.803        2386.278          40.875    27572248.947   109610723.791        2417.446          43.625  
E21  28615624.315   150376133.469          77.950          34.500    28615629.049   115223286.005          59.966          38.000    28615631.018   112293889.259          58.512          38.500    28615630.689   113758590.176          59.240          41.188  
E34  23877970.858   125479594.619        1332.448          47.375    23877972.293    96146714.736        1021.029          48.688    23877973.467    93702312.886         995.009          48.500    23877973.262    94924516.854        1008.022          51.625  
E36  24115013.481   126725237.163       -1597.999          46.875    24115015.901    97101157.172       -1224.490          48.875    24115017.531    94632487.936       -1193.322          48.750    24115017.079    95866824.100       -1208.901          51.875  
> 2023 09 10 11 30 49.0000000  0  9                     
E03  28574107.492   150157937.643        3266.968          30.625    28574117.300   115056133.403        2503.406          33.250    28574121.363   112130989.168        2439.736          34.438    28574119.966   113593566.335        2471.546          36.938  
E04  27102458.019   142424342.503       -2450.217          38.250    27102461.273   109130335.481       -1877.463          42.500    27102463.133   106355839.998       -1829.700          43.000    27102462.671   107743088.786       -1853.589          45.750  
E05  24288453.091   127636724.037        2201.703          46.438    24288455.109    97799590.277        1686.994          48.125    24288456.607    95313168.916        1644.210          48.438    24288456.336    96556381.640        1665.602          51.250  
E09  23620926.426   124128805.325        -614.421          47.438    23620926.908    95111689.848        -470.821          49.500    23620928.525    92693599.910        -458.780          48.813    23620928.081    93902646.920        -464.803          52.188  
E11  26973378.153   141745965.178       -2879.182          29.563    26973384.344   108610520.102       -2205.869          34.063    26973386.613   105849238.327       -2149.870          33.938    26973385.867   107229881.256       -2177.866          37.000  
E15  27571634.296   144889913.001        3194.640          37.875    27571639.448   111019567.850        2447.708          40.313    27571641.700   108197042.179        2385.685          40.875    27571640.998   109608307.056        2416.699          43.625  
E21  28615609.614   150376056.364          76.966          34.563    28615614.443   115223226.968          58.838          37.938    28615616.381   112293831.736          57.450          38.563    28615616.013   113758531.895          58.138          41.313  
E34  23877717.558   125478263.135        1331.294          47.500    23877718.939    96145694.512        1020.116          48.625    23877720.083    93701318.596         994.171          48.500    23877719.891    94923509.598        1007.140          51.563  
E36  24115317.740   126726836.199       -1599.147          47.000    24115320.192    97102382.404       -1225.417          48.875    24115321.836    94633682.015       -1194.192          48.813    24115321.364    95868033.756       -1209.805          51.938  
> 2023 09 10 11 30 50.0000000  0  9                     
E03  28573485.643   150154670.846        3267.072          30.125    28573495.682   115053630.311        2503.080          33.688    28573499.740   112128549.691        2439.621          34.125    28573498.267   113591095.046        2471.329          36.875  
E04  27102924.410   142426792.960       -2450.171          38.125    27102927.575   109132213.095       -1877.456          42.375    27102929.396   106357669.879       -1829.766          43.000    27102928.989   107744942.533       -1853.601          45.750  
E05  24288034.157   127634522.670        2201.539          46.313    24288036.199    97797903.513        1686.836          48.063    24288037.708    95311525.039        1644.038          48.438    24288037.426    96554716.319        1665.445          51.250  
E09  23621043.397   124129420.144        -614.724          47.438    23621043.879    95112160.940        -470.996          49.500    23621045.518    92694059.026        -459.047          48.813    23621045.082    93903112.025        -465.021          52.188  
E11  26973926.532   141748844.505       -2878.704          29.813    26973932.297   108612726.409       -2206.024          34.063    26973934.538   105851388.513       -2149.796          33.875    26973933.793   107232059.503       -2177.904          36.813  
E15  27571026.406   144886718.667        3194.447          37.938    27571031.571   111017120.228        2447.774          40.438    27571033.921   108194656.791        2385.609          40.813    27571033.126   109605890.552        2416.697          43.688  
E21  28615595.234   150375980.014          76.286          34.875    28615599.933   115223168.452          58.479          38.250    28615601.885   112293774.692          57.212          38.563    28615601.467   113758474.116          57.834          41.375  
E34  23877464.263   125476932.277        1330.938          47.313    23877465.706    96144674.760        1019.778          48.625    23877466.839    93700324.775         993.904          48.500    23877466.636    94922502.811        1006.837          51.563  
E36  24115622.120   126728435.814       -1599.455          46.875    24115624.622    97103608.080       -1225.590          48.875    24115626.226    94634876.536       -1194.496          48.813    24115625.765    95869243.854       -1210.043          51.875  
> 2023 09 10 11 30 51.0000000  0  9                     
E03  28572864.034   150151403.791        3267.160          30.688    28572874.016   115051126.933        2503.927          33.625    28572878.006   112126109.972        2439.905          34.313    28572876.555   113588623.497        2471.927          36.938  
E04  27103390.584   142429243.157       -2449.687          38.063    27103393.782   109134090.502       -1876.901          42.375    27103395.661   106359499.556       -1829.388          42.938    27103395.241   107746796.076       -1853.147          45.688  
E05  24287615.276   127632321.238        2201.764          46.313    24287617.262    97796216.706        1687.111          48.125    24287618.790    95309881.120        1644.195          48.375    24287618.493    96553050.956        1665.647          51.188  
E09  23621160.373   124130034.937        -614.489          47.438    23621160.862    95112632.014        -470.791          49.500    23621162.495    92694518.125        -458.863          48.750    23621162.072    93903577.111        -464.830          52.188  
E11  26974474.314   141751723.630       -2878.791          30.063    26974480.165   108614932.437       -2205.418          34.063    26974482.429   105853538.475       -2149.411          33.938    26974481.687   107234237.493       -2177.397          36.938  
E15  27570418.378   144883524.056        3194.961          37.938    27570423.685   111014672.410        2448.156          40.500    27570426.021   108192271.211        2385.965          40.875    27570425.205   109603473.853        2417.054          43.688  
E21  28615580.519   150375903.753          76.629          34.250    28615585.510   115223110.025          58.592          37.750    28615587.371   112293717.755          57.237          38.375    28615586.961   113758416.434          57.913          41.063  
E34  23877211.055   125475601.444        1331.183          47.375    23877212.452    96143655.033        1019.997          48.625    23877213.588    93699330.971         994.041          48.500    23877213.381    94921496.046        1007.013          51.563  
E36  24115926.551   126730035.439       -1599.366          46.875    24115929.008    97104833.761       -1225.480          48.875    24115930.594    94636071.048       -1194.253          48.813    24115930.153    95870453.951       -1209.873          51.875  
> 2023 09 10 11 30 52.0000000  0  9                     
E03  28572241.972   150148136.264        3267.955          30.250    28572252.237   115048623.286        2503.922          33.625    28572256.227   112123669.960        2440.263          34.188    28572254.758   113586151.666        2472.093          36.875  
E04  27103856.765   142431692.989       -2449.581          37.750    27103859.936   109135967.656       -1877.107          42.375    27103861.897   106361328.981       -1829.283          42.875    27103861.430   107748649.365       -1853.197          45.625  
E05  24287196.379   127630119.690        2201.543          46.375    24287198.347    97794529.807        1686.886          48.063    24287199.871    95308237.114        1643.973          48.375    24287199.551    96551385.503        1665.431          51.188  
E09  23621277.360   124130649.647        -614.682          47.438    23621277.857    95113103.034        -471.007          49.500    23621279.482    92694977.172        -459.050          48.813    23621279.041    93904042.144        -465.026          52.188  
E11  26975022.169   141754602.364       -2878.437          30.313    26975027.976   108617138.228       -2205.715          33.813    26975030.186   105855688.172       -2149.635          34.250    26975029.466   107236415.243       -2177.706          37.000  
E15  27569810.278   144880329.105        3194.992          37.813    27569815.655   111012224.343        2448.167          40.438    27569818.001   108189885.381        2385.807          40.813    27569817.225   109601056.904        2416.995          43.688  
E21  28615565.807   150375827.562          76.109          34.438    28615570.928   115223051.639          58.346          37.875    28615572.888   112293660.848          57.088          38.438    28615572.441   113758358.786          57.717          41.125  
E34  23876957.821   125474270.586        1330.807          47.375    23876959.201    96142635.287        1019.726          48.625    23876960.315    93698337.149         993.806          48.500    23876960.127    94920489.262        1006.763          51.563  
E36  24116230.951   126731634.991       -1599.513          46.813    24116233.360    97106059.394       -1225.615          48.875    24116234.964    94637265.526       -1194.462          48.813    24116234.545    95871664.006       -1210.040          51.938  
> 2023 09 10 11 30 53.0000000  0  9                     
E03  28571620.395   150144868.643        3268.165          29.688    28571630.611   115046119.513        2504.295          33.500    28571634.432   112121229.874        2440.375          34.438    28571632.925   113583679.741        2472.301          36.938  
E04  27104322.845   142434142.738       -2449.378          37.938    27104326.161   109137844.721       -1876.791          42.250    27104328.039   106363158.319       -1829.017          42.750    27104327.610   107750502.566       -1852.901          45.500  
E05  24286777.462   127627918.237        2201.738          46.250    24286779.401    97792842.983        1687.044          48.125    24286780.895    95306593.166        1644.203          48.375    24286780.623    96549720.118        1665.623          51.250  
E09  23621394.437   124131264.513        -614.545          47.500    23621394.820    95113574.160        -470.887          49.563    23621396.470    92695436.318        -458.947          48.813    23621396.050    93904507.281        -464.916          52.188  
E11  26975569.789   141757480.988       -2878.006          30.250    26975575.725   108619343.906       -2205.517          33.875    26975577.827   105857837.788       -2149.349          33.875    26975577.275   107238592.888       -2177.414          36.813  
E15  27569202.284   144877134.040        3195.656          37.438    27569207.742   111009776.186        2448.455          40.438    27569209.977   108187499.466        2386.245          40.750    27569209.232   109598639.868        2417.363          43.625  
E21  28615551.176   150375751.631          76.205          34.313    28615556.376   115222993.453          58.354          37.750    28615558.336   112293604.170          56.859          38.375    28615557.980   113758301.355          57.584          41.063  
E34  23876704.604   125472939.924        1330.923          47.438    23876705.975    96141615.690        1019.785          48.625    23876707.082    93697343.479         993.847          48.500    23876706.908    94919482.628        1006.822          51.563  
E36  24116535.366   126733234.716       -1599.456          46.750    24116537.788    97107285.154       -1225.554          48.813    24116539.363    94638460.118       -1194.405          48.813    24116538.969    95872874.182       -1209.978          51.875  
> 2023 09 10 11 30 54.0000000  0  9                     
E03  28570998.941   150141601.117        3267.536          30.063    28571008.686   115043615.809        2504.198          33.625    28571012.593   112118789.833        2440.184          34.313    28571011.101   113581207.867        2472.176          36.938  
E04  27104789.150   142436592.570       -2449.586          37.875    27104792.444   109139721.877       -1876.940          42.313    27104794.179   106364987.754       -1829.265          42.750    27104793.821   107752355.861       -1853.105          45.500  
E05  24286358.584   127625717.141        2201.244          46.438    24286360.564    97791156.428        1686.644          48.188    24286362.052    95304949.499        1643.745          48.250    24286361.770    96548055.007        1665.194          51.188  
E09  23621511.496   124131879.769        -615.167          47.625    23621511.896    95114045.588        -471.325          49.563    23621513.532    92695895.758        -459.377          48.813    23621513.131    93904972.714        -465.340          52.188  
E11  26976117.308   141760359.704       -2878.522          30.500    26976123.374   108621549.668       -2205.662          34.063    26976125.666   105859987.441       -2149.288          34.063    26976125.080   107240770.593       -2177.414          37.000  
E15  27568594.318   144873939.143        3195.043          37.250    27568599.863   111007328.140        2448.146          40.563    27568602.005   108185113.667        2385.897          40.938    27568601.274   109596222.946        2417.015          43.813  
E21  28615536.778   150375676.231          75.093          34.063    28615541.911   115222935.688          57.689          37.688    28615544.056   112293547.866          56.245          38.438    28615543.609   113758244.321          56.958          41.063  
E34  23876451.443   125471609.706        1330.286          47.500    23876452.861    96140596.430        1019.308          48.625    23876453.963    93696350.132         993.391          48.438    23876453.774    94918476.325        1006.341          51.563  
E36  24116839.812   126734834.853       -1600.052          46.875    24116842.284    97108511.232       -1225.987          48.875    24116843.870    94639655.022       -1194.799          48.813    24116843.459    95874084.673       -1210.392          51.875  
> 2023 09 10 11 30 55.0000000  0  9                     
E03  28570377.168   150138334.230        3266.661          29.438    28570386.949   115041112.647        2502.581          34.125    28570390.891   112116350.288        2439.012          34.438    28570389.430   113578736.511        2470.792          37.250  
E04  27105255.375   142439043.128       -2451.000          38.125    27105258.779   109141599.584       -1878.179          42.375    27105260.480   106366817.718       -1830.384          42.813    27105260.167   107754209.697       -1854.287          45.625  
E05  24285939.930   127623516.954        2199.497          46.500    24285941.851    97789470.573        1685.319          48.188    24285943.377    95303306.497        1642.505          48.375    24285943.079    96546390.578        1663.908          51.250  
E09  23621628.768   124132495.978        -616.923          47.625    23621629.152    95114517.746        -472.663          49.563    23621630.799    92696355.914        -460.662          48.938    23621630.394    93905438.871        -466.662          52.250  
E11  26976664.804   141763239.126       -2879.758          30.500    26976671.326   108623755.951       -2206.588          34.188    26976673.604   105862137.671       -2150.719          34.063    26976673.050   107242948.855       -2178.648          37.063  
E15  27567986.383   144870744.930        3193.772          37.313    27567992.069   111004880.632        2447.080          40.500    27567994.068   108182728.376        2384.767          40.938    27567993.429   109593806.547        2415.917          43.750  
E21  28615522.862   150375601.903          73.607          34.063    28615527.775   115222878.735          56.367          37.750    28615529.884   112293492.360          54.959          38.375    28615529.447   113758188.089          55.662          41.000  
E34  23876198.444   125470280.489        1328.542          47.563    23876199.913    96139577.949        1017.946          48.625    23876201.026    93695357.538         992.087          48.625    23876200.832    94917470.787        1005.022          51.688  
E36  24117144.455   126736435.956       -1601.820          46.938    24117146.959    97109738.050       -1227.317          48.875    24117148.574    94640850.654       -1196.182          48.938    24117148.147    95875295.899       -1211.755          51.938  
> 2023 09 10 11 30 56.0000000  0  9                     
E03  28569755.304   150135068.233        3265.365          29.438    28569765.560   115038610.139        2501.992          33.875    28569769.179   112113911.404        2438.425          34.563    28569767.883   113576265.815        2470.192          37.250  
E04  27105721.901   142441494.629       -2452.298          37.875    27105725.295   109143477.987       -1878.965          42.250    27105726.979   106368648.364       -1831.188          42.938    27105726.673   107756064.223       -1855.081          45.625  
E05  24285521.477   127621317.921        2198.236          46.438    24285523.427    97787785.606        1684.305          48.125    24285524.907    95301664.369        1641.530          48.375    24285524.625    96544727.031        1662.921          51.250  
E09  23621746.264   124133113.387        -618.229          47.563    23621746.667    95114990.830        -473.776          49.500    23621748.271    92696816.966        -461.663          48.875    23621747.882    93905905.939        -467.721          52.250  
E11  26977212.577   141766119.475       -2881.176          30.625    26977219.452   108625962.991       -2207.534          34.250    26977221.756   105864288.573       -2151.314          34.000    26977221.164   107245127.826       -2179.469          37.125  
E15  27567378.690   144867551.688        3192.388          37.375    27567384.340   111002433.859        2446.255          40.438    27567386.427   108180343.812        2384.090          41.063    27567385.772   109591390.878        2415.169          43.750  
E21  28615509.099   150375528.921          71.955          33.625    28615513.836   115222822.816          55.316          37.625    28615516.003   112293437.861          53.657          38.438    28615515.558   113758132.882          54.499          41.000  
E34  23875945.739   125468952.541        1327.079          47.625    23875947.192    96138560.422        1016.840          48.625    23875948.347    93694365.887         990.946          48.500    23875948.140    94916466.198        1003.898          51.625  
E36  24117449.330   126738038.285       -1603.208          46.813    24117451.902    97110965.812       -1228.443          48.813    24117453.487    94642047.201       -1197.197          49.000    24117453.062    95876508.053       -1212.819          51.938  
> 2023 09 10 11 30 57.0000000  0  9                     
E03  28569133.683   150131802.068        3266.229          29.875    28569143.983   115036107.475        2502.902          34.125    28569147.762   112111472.354        2439.229          34.688    28569146.341   113573794.957        2471.077          37.438  
E04  27106188.247   142443945.921       -2450.924          38.000    27106191.753   109145356.236       -1877.914          42.250    27106193.398   106370478.869       -1830.202          42.938    27106193.144   107757918.599       -1854.074          45.625  
E05  24285102.999   127619118.911        2199.306          46.563    24285104.963    97786100.652        1685.094          48.125    24285106.465    95300022.261        1642.312          48.375    24285106.161    96543063.500        1663.696          51.250  
E09  23621863.749   124133730.853        -617.186          47.750    23621864.178    95115463.950        -472.932          49.438    23621865.782    92697278.063        -460.939          48.875    23621865.378    93906373.048        -466.935          52.188  
E11  26977760.814   141768999.654       -2879.826          30.125    26977767.582   108628169.857       -2206.782          34.375    26977769.824   105866439.332       -2150.403          34.063    26977769.233   107247306.634       -2178.591          37.188  
E15  27566771.150   144864358.244        3193.659          37.438    27566776.615   110999986.942        2447.171          40.438    27566778.740   108177959.100        2385.055          40.938    27566778.091   109588975.063        2416.123          43.750  
E21  28615495.092   150375456.141          73.167          34.000    28615499.969   115222767.062          55.769          37.438    28615502.141   112293383.509          54.600          38.313    28615501.701   113758077.828          55.196          40.875  
E34  23875693.047   125467624.694        1328.067          47.750    23875694.547    96137542.985        1017.572          48.563    23875695.669    93693374.318         991.698          48.625    23875695.462    94915461.695        1004.633          51.625  
E36  24117754.316   126739640.695       -1602.206          46.938    24117756.883    97112193.629       -1227.683          48.750    24117758.412    94643243.799       -1196.415          49.000    24117757.991    95877720.259       -1212.049          51.938  
> 2023 09 10 11 30 58.0000000  0  9                     
E03  28568512.158   150128536.055        3265.844          29.188    28568522.488   115033604.954        2502.129          33.813    28568526.082   112109033.478        2438.335          34.875    28568524.861   113571324.260        2470.233          37.313  
E04  27106654.589   142446397.480       -2452.302          38.000    27106658.241   109147234.704       -1878.971          42.313    27106659.982   106372309.567       -1831.126          42.938    27106659.678   107759773.182       -1855.044          45.688  
E05  24284684.647   127616920.394        2197.775          46.563    24284686.575    97784416.073        1683.990          48.063    24284688.092    95298380.509        1641.147          48.375    24284687.796    96541400.334        1662.571          51.188  
E09  23621981.381   124134348.859        -618.743          47.625    23621981.795    95115937.481        -474.070          49.375    23621983.362    92697739.555        -462.066          49.000    23621982.982    93906840.559        -468.064          52.188  
E11  26978309.671   141771880.088       -2881.370          30.313    26978315.779   108630376.883       -2207.512          33.813    26978317.999   105868590.277       -2151.454          34.125    26978317.342   107249485.621       -2179.497          36.938  
E15  27566163.500   144861165.071        3192.392          37.313    27566168.908   110997540.232        2446.268          40.313    27566171.126   108175574.593        2384.043          41.063    27566170.456   109586559.455        2415.165          43.688  
E21  28615481.347   150375384.012          71.047          34.063    28615486.200   115222711.773          54.770          37.313    28615488.421   112293329.647          53.330          38.188    28615487.973   113758023.257          54.043          40.750  
E34  23875440.452   125466297.436        1326.497          47.750    23875441.980    96136525.992        1016.367          48.500    23875443.084    93692383.175         990.568          48.688    23875442.896    94914457.627        1003.468          51.625  
E36  24118059.369   126741243.651       -1603.678          46.875    24118061.917    97113421.868       -1228.815          48.688    24118063.465    94644440.813       -1197.570          49.125    24118063.023    95878932.886       -1213.192          51.938  
> 2023 09 10 11 30 59.0000000  0  9                     
E03  28567890.841   150125270.430        3265.952          29.688    28567900.943   115031102.709        2502.869          34.000    28567904.622   112106594.830        2438.825          34.938    28567903.427   113568853.811        2470.826          37.500  
E04  27107121.160   142448849.411       -2451.458          37.813    27107124.861   109149113.460       -1878.545          42.250    27107126.591   106374140.563       -1830.808          42.938    27107126.260   107761628.058       -1854.672          45.625  
E05  24284266.467   127614722.472        2198.155          46.625    24284268.336    97782731.951        1684.259          48.125    24284269.849    95296739.197        1641.508          48.375    24284269.547    96539737.618        1662.882          51.250  
E09  23622099.123   124134967.496        -618.396          47.750    23622099.529    95116411.506        -473.847          49.375    23622101.069    92698201.530        -461.830          48.938    23622100.702    93907308.560        -467.842          52.188  
E11  26978857.866   141774760.788       -2880.342          30.063    26978864.027   108632584.217       -2207.075          34.313    26978866.088   105870741.485       -2150.798          34.250    26978865.523   107251664.892       -2178.980          37.250  
E15  27565555.912   144857972.287        3193.426          37.563    27565561.326   110995093.820        2446.638          40.375    27565563.467   108173190.382        2384.506          41.000    27565562.883   109584144.143        2415.588          43.688  
E21  28615467.963   150375312.693          71.187          33.938    28615472.693   115222657.104          54.803          37.500    28615474.838   112293276.373          53.355          38.375    28615474.397   113757969.280          54.091          40.938  
E34  23875187.972   125464970.862        1326.755          47.938    23875189.532    96135509.527        1016.601          48.625    23875190.670    93691392.555         990.763          48.625    23875190.455    94913454.085        1003.678          51.688  
E36  24118364.594   126742847.275       -1603.414          46.938    24118367.104    97114650.608       -1228.590          48.750    24118368.622    94645638.315       -1197.310          49.063    24118368.185    95880146.007       -1212.942          52.000  
> 2023 09 10 11 31 00.0000000  0  9                     
E03  28567269.394   150122004.364        3266.187          29.125    28567279.419   115028600.138        2502.509          34.125    28567283.219   112104155.917        2438.719          34.875    28567281.907   113566383.075        2470.595          37.563  
E04  27107587.752   142451300.947       -2451.554          37.938    27107591.434   109150991.908       -1878.562          42.250    27107593.125   106375971.255       -1830.782          42.938    27107592.780   107763482.628       -1854.678          45.625  
E05  24283848.209   127612524.371        2197.823          46.625    24283850.044    97781047.699        1683.990          48.188    24283851.596    95295097.771        1641.177          48.438    24283851.272    96538074.778        1662.587          51.313  
E09  23622216.784   124135586.012        -618.882          47.688    23622217.214    95116885.436        -474.241          49.375    23622218.762    92698663.407        -462.140          49.063    23622218.409    93907776.463        -468.189          52.250  
E11  26979405.870   141777641.172       -2880.181          30.500    26979412.001   108634791.264       -2207.270          34.250    26979414.299   105872892.425       -2151.415          34.188    26979413.677   107253843.883       -2179.306          37.250  
E15  27564948.220   144854779.167        3192.876          37.563    27564953.639   110992647.124        2446.581          40.438    27564955.787   108170805.894        2384.364          41.063    27564955.266   109581728.553        2415.469          43.750  
E21  28615454.309   150375241.342          70.503          34.188    28615459.091   115222602.446          54.482          37.688    28615461.174   112293223.089          52.972          38.500    28615460.834   113757915.310          53.747          41.063  
E34  23874935.541   125463644.225        1326.261          47.875    23874937.103    96134493.014        1016.224          48.563    23874938.218    93690401.888         990.321          48.625    23874938.019    94912450.494        1003.277          51.625  
E36  24118669.756   126744450.782       -1603.871          46.938    24118672.251    97115879.277       -1228.951          48.813    24118673.739    94646835.748       -1197.694          49.125    24118673.328    95881359.058       -1213.322          52.000  
> 2023 09 10 11 31 01.0000000  0  9                     
E03  28566648.256   150118739.051        3264.866          29.750    28566657.972   115026098.119        2501.994          34.188    28566661.873   112101717.494        2438.614          35.000    28566660.512   113563912.850        2470.306          37.625  
E04  27108054.428   142453753.271       -2452.261          38.125    27108058.134   109152870.943       -1878.909          42.313    27108059.784   106377802.518       -1831.199          42.875    27108059.448   107765337.775       -1855.062          45.625  
E05  24283430.099   127610327.255        2197.050          46.625    24283431.929    97779364.200        1683.388          48.125    24283433.495    95293457.067        1640.623          48.375    24283433.171    96536412.676        1662.005          51.250  
E09  23622334.660   124136205.538        -619.601          47.813    23622335.087    95117360.137        -474.768          49.375    23622336.636    92699126.043        -462.714          49.000    23622336.294    93908245.131        -468.745          52.188  
E11  26979954.100   141780522.296       -2881.004          30.375    26979960.352   108636998.863       -2207.505          34.500    26979962.455   105875043.876       -2151.638          34.188    26979961.960   107256023.413       -2179.579          37.313  
E15  27564340.700   144851586.776        3192.385          37.938    27564346.106   110990201.004        2446.236          40.313    27564348.327   108168421.980        2383.869          41.063    27564347.778   109579313.538        2415.038          43.625  
E21  28615440.962   150375171.124          69.962          34.250    28615445.834   115222548.652          53.740          37.563    28615447.823   112293170.669          52.191          38.500    28615447.482   113757862.204          52.956          41.000  
E34  23874683.305   125462318.645        1325.434          47.938    23874684.841    96133477.312        1015.605          48.625    23874685.955    93689412.003         989.858          48.688    23874685.761    94911447.702        1002.720          51.688  
E36  24118975.056   126746055.328       -1604.636          46.938    24118977.583    97117108.730       -1229.539          48.688    24118979.050    94648033.942       -1198.264          49.125    24118978.664    95882572.882       -1213.895          52.000  
> 2023 09 10 11 31 02.0000000  0  9                     
E03  28566026.943   150115473.640        3265.156          29.938    28566036.693   115023596.117        2501.510          34.125    28566040.471   112099279.089        2438.365          35.188    28566039.136   113561442.648        2469.943          37.688  
E04  27108521.256   142456205.565       -2452.364          37.938    27108524.724   109154749.985       -1879.211          42.125    27108526.439   106379633.784       -1831.484          42.875    27108526.133   107767192.932       -1855.363          45.500  
E05  24283012.079   127608130.349        2196.681          46.563    24283013.862    97777680.859        1683.074          48.188    24283015.403    95291816.520        1640.336          48.375    24283015.110    96534750.732        1661.711          51.250  
E09  23622452.536   124136825.331        -620.125          47.813    23622453.029    95117835.045        -475.177          49.375    23622454.560    92699588.869        -463.037          48.938    23622454.237    93908713.999        -469.119          52.188  
E11  26980502.236   141783403.450       -2881.529          30.625    26980508.698   108639206.435       -2207.573          34.250    26980510.836   105877195.310       -2151.487          34.313    26980510.204   107258202.914       -2179.518          37.188  
E15  27563733.332   144848394.403        3192.372          37.625    27563738.611   110987754.914        2445.961          40.250    27563740.849   108166038.063        2383.657          40.875    27563740.267   109576898.533        2414.789          43.563  
E21  28615427.753   150375101.303          69.446          34.250    28615432.435   115222495.174          53.133          37.375    28615434.533   112293118.533          51.942          38.625    28615434.197   113757809.396          52.553          41.000  
E34  23874431.108   125460993.388        1324.955          47.938    23874432.641    96132461.849        1015.263          48.563    23874433.763    93688422.366         989.395          48.750    23874433.579    94910445.152        1002.330          51.750  
E36  24119280.404   126747660.153       -1605.151          46.938    24119282.952    97118338.403       -1229.943          48.688    24119284.448    94649232.349       -1198.671          49.125    24119284.053    95883786.922       -1214.311          52.000  
> 2023 09 10 11 31 03.0000000  0  9                     
E03  28565405.498   150112208.306        3265.320          29.625    28565415.370   115021094.073        2502.171          34.125    28565419.130   112096840.651        2438.846          35.125    28565417.719   113558972.405        2470.525          37.625  
E04  27108987.895   142458657.927       -2452.145          37.938    27108991.340   109156629.057       -1878.870          42.250    27108993.080   106381465.071       -1830.999          42.750    27108992.800   107769048.109       -1854.907          45.500  
E05  24282594.108   127605933.722        2196.827          46.625    24282595.810    97775997.724        1683.283          48.250    24282597.420    95290176.184        1640.499          48.375    24282597.102    96533088.996        1661.889          51.313  
E09  23622570.549   124137445.430        -619.942          47.813    23622571.035    95118310.188        -474.982          49.438    23622572.564    92700051.933        -462.925          49.000    23622572.235    93909183.102        -468.958          52.250  
E11  26981050.585   141786284.544       -2880.298          30.500    26981057.000   108641414.061       -2207.445          34.375    26981059.195   105879346.820       -2151.180          34.250    26981058.455   107260382.484       -2179.299          37.313  
E15  27563125.995   144845202.097        3192.416          37.813    27563131.201   110985308.853        2446.308          40.313    27563133.417   108163654.195        2384.120          40.938    27563132.793   109574483.569        2415.211          43.625  
E21  28615414.760   150375031.932          69.566          34.250    28615419.249   115222442.018          53.265          37.750    28615421.480   112293066.740          51.870          38.563    28615420.997   113757756.923          52.534          41.125  
E34  23874178.998   125459668.489        1325.046          48.000    23874180.542    96131446.677        1015.279          48.625    23874181.659    93687432.994         989.459          48.750    23874181.456    94909442.879        1002.374          51.688  
E36  24119585.827   126749265.312       -1604.946          46.938    24119588.364    97119568.325       -1229.776          48.688    24119589.899    94650431.007       -1198.498          49.125    24119589.510    95885001.212       -1214.139          52.000  
> 2023 09 10 11 31 04.0000000  0  9                     
E03  28564784.014   150108942.630        3265.383          29.625    28564794.094   115018591.855        2501.432          34.063    28564797.699   112094402.036        2438.345          34.938    28564796.270   113556501.990        2469.858          37.500  
E04  27109454.610   142461110.040       -2452.457          37.750    27109457.943   109158507.941       -1879.020          42.250    27109459.678   106383296.205       -1831.377          42.813    27109459.436   107770903.119       -1855.209          45.563  
E05  24282176.090   127603737.076        2196.180          46.500    24282177.769    97774314.580        1682.825          48.188    24282179.409    95288535.834        1640.088          48.375    24282179.091    96531427.249        1661.456          51.250  
E09  23622688.542   124138065.555        -620.509          47.688    23622689.034    95118785.344        -475.471          49.313    23622690.579    92700515.013        -463.385          49.125    23622690.236    93909652.219        -469.418          52.250  
E11  26981599.149   141789165.483       -2881.171          30.438    26981605.275   108643621.517       -2207.531          34.313    26981607.430   105881498.161       -2151.586          34.250    26981606.681   107262561.881       -2179.556          37.250  
E15  27562518.675   144842009.555        3192.261          37.813    27562523.675   110982862.627        2446.107          40.375    27562525.958   108161270.162        2383.763          40.938    27562525.270   109572068.439        2414.908          43.688  
E21  28615401.604   150374962.730          68.802          34.188    28615406.108   115222389.000          52.445          37.438    28615408.315   112293015.060          51.352          38.625    28615407.833   113757704.570          51.925          41.000  
E34  23873926.890   125458343.670        1324.382          47.875    23873928.458    96130431.552        1014.760          48.563    23873929.545    93686443.681         988.992          48.750    23873929.346    94908440.659        1001.875          51.688  
E36  24119891.270   126750870.510       -1605.634          46.813    24119893.825    97120798.288       -1230.363          48.563    24119895.384    94651629.696       -1199.021          49.188    24119894.971    95886215.538       -1214.694          51.938  
> 2023 09 10 11 31 05.0000000  0  9                     
E03  28564162.472   150105677.064        3265.866          30.125    28564172.718   115016089.644        2502.131          33.750    28564176.255   112091963.487        2438.365          35.000    28564174.880   113554031.606        2470.285          37.375  
E04  27109921.336   142463562.245       -2452.073          37.875    27109924.563   109160386.904       -1878.891          42.188    27109926.300   106385127.398       -1831.233          42.813    27109926.077   107772758.198       -1855.070          45.500  
E05  24281758.137   127601540.750        2196.185          46.500    24281759.808    97772631.686        1682.804          48.125    24281761.446    95286895.723        1639.978          48.438    24281761.146    96529765.747        1661.395          51.250  
E09  23622806.619   124138686.045        -620.593          47.750    23622807.104    95119260.788        -475.499          49.313    23622808.670    92700978.368        -463.458          49.125    23622808.318    93910121.619        -469.471          52.250  
E11  26982147.461   141792046.510       -2880.925          30.250    26982153.458   108645829.031       -2207.650          34.375    26982155.521   105883649.540       -2151.532          34.188    26982154.866   107264741.329       -2179.579          37.250  
E15  27561911.054   144838817.126        3192.533          37.563    27561916.178   110980416.492        2446.065          40.250    27561918.522   108158886.215        2383.923          40.938    27561917.773   109569653.397        2415.004          43.625  
E21  28615388.509   150374893.993          68.495          34.313    28615393.063   115222336.332          52.493          37.438    28615395.284   112292963.750          51.226          38.625    28615394.749   113757652.584          51.856          41.063  
E34  23873674.883   125457019.262        1324.273          47.875    23873676.446    96129416.752        1014.729          48.625    23873677.508    93685454.679         988.881          48.750    23873677.330    94907438.759        1001.807          51.688  
E36  24120196.777   126752476.098       -1605.675          46.875    24120199.374    97122028.539       -1230.357          48.625    24120200.899    94652828.667       -1199.046          49.125    24120200.508    95887430.148       -1214.695          51.938  
> 2023 09 10 11 31 06.0000000  0  9                     
E03  28563540.958   150102411.210        3265.781          29.875    28563551.255   115013587.217        2502.613          34.125    28563554.752   112089524.645        2439.189          34.938    28563553.400   113551560.977        2470.885          37.563  
E04  27110388.031   142466014.195       -2451.818          37.875    27110391.147   109162265.660       -1878.682          42.313    27110392.891   106386958.384       -1830.797          42.750    27110392.677   107774613.068       -1854.746          45.563  
E05  24281340.165   127599344.358        2196.499          46.375    24281341.858    97770948.735        1682.973          48.250    24281343.511    95285255.562        1640.225          48.313    24281343.193    96528104.191        1661.594          51.250  
E09  23622924.679   124139306.518        -620.478          47.625    23622925.152    95119736.212        -475.438          49.375    23622926.743    92701441.705        -463.297          49.063    23622926.392    93910591.001        -469.368          52.250  
E11  26982695.722   141794927.207       -2880.805          30.500    26982701.676   108648036.316       -2207.257          34.250    26982703.877   105885800.710       -2151.000          34.125    26982703.043   107266920.559       -2179.104          37.188  
E15  27561303.315   144835624.425        3193.047          37.438    27561308.607   110977970.135        2446.555          40.250    27561310.952   108156502.063        2384.207          40.875    27561310.205   109567238.141        2415.392          43.625  
E21  28615375.221   150374825.416          68.395          34.438    28615380.079   115222283.777          52.310          37.563    28615382.226   112292912.514          51.275          38.625    28615381.705   113757600.688          51.815          41.063  
E34  23873422.910   125455694.894        1324.329          47.875    23873424.429    96128401.976        1014.706          48.563    23873425.513    93684465.699         989.030          48.688    23873425.305    94906436.881        1001.870          51.625  
E36  24120502.319   126754081.683       -1605.526          46.750    24120504.885    97123258.788       -1230.290          48.625    24120506.440    94654027.647       -1198.993          49.188    24120506.045    95888644.763       -1214.636          51.938  
> 2023 09 10 11 31 07.0000000  0  9                     
E03  28562919.330   150099145.186        3265.735          29.125    28562929.768   115011084.695        2502.595          34.125    28562933.242   112087085.757        2438.801          35.000    28562931.872   113549090.270        2470.685          37.563  
E04  27110854.586   142468466.022       -2451.665          37.688    27110857.704   109164144.336       -1878.496          42.313    27110859.512   106388789.286       -1830.767          42.813    27110859.242   107776467.857       -1854.629          45.625  
E05  24280922.217   127597148.086        2196.287          46.375    24280923.927    97769265.881        1682.900          48.250    24280925.573    95283615.493        1640.037          48.250    24280925.261    96526442.729        1661.475          51.250  
E09  23623042.740   124139927.141        -620.593          47.750    23623043.263    95120211.756        -475.519          49.375    23623044.864    92701905.160        -463.473          49.000    23623044.496    93911060.499        -469.494          52.250  
E11  26983243.988   141797807.809       -2880.798          30.500    26983249.894   108650243.518       -2207.232          34.375    26983251.988   105887951.798       -2150.848          34.313    26983251.192   107269099.701       -2179.025          37.375  
E15  27560695.811   144832431.669        3192.727          37.750    27560701.056   110975523.733        2446.413          40.250    27560703.399   108154117.843        2384.319          40.813    27560702.614   109564822.832        2415.351          43.563  
E21  28615362.470   150374757.098          68.333          34.188    28615367.045   115222231.445          52.140          37.438    28615369.208   112292861.527          50.942          38.688    28615368.692   113757549.031          51.522          41.063  
E34  23873170.912   125454370.730        1324.204          47.875    23873172.460    96127387.361        1014.599          48.688    23873173.542    93683476.878         988.806          48.688    23873173.333    94905435.163        1001.701          51.750  
E36  24120807.924   126755687.442       -1605.685          46.688    24120810.467    97124489.174       -1230.320          48.563    24120811.986    94655226.749       -1199.105          49.125    24120811.609    95889859.507       -1214.711          51.938  
> 2023 09 10 11 31 08.0000000  0  9                     
E03  28562297.899   150095879.385        3265.975          29.875    28562308.242   115008582.318        2502.700          34.250    28562311.861   112084647.009        2439.177          34.875    28562310.406   113546619.709        2470.927          37.625  
E04  27111321.131   142470918.121       -2451.613          38.125    27111324.372   109166023.205       -1878.460          42.313    27111326.171   106390620.399       -1830.784          42.875    27111325.869   107778322.849       -1854.623          45.625  
E05  24280504.372   127594952.290        2196.223          46.500    24280506.102    97767583.396        1682.771          48.250    24280507.728    95281975.775        1640.071          48.250    24280507.402    96524781.628        1661.413          51.250  
E09  23623160.941   124140548.290        -620.720          47.688    23623161.488    95120687.701        -475.652          49.375    23623163.073    92702369.004        -463.538          49.000    23623162.694    93911530.395        -469.598          52.250  
E11  26983792.263   141800688.618       -2880.448          30.563    26983798.048   108652450.894       -2206.934          34.250    26983800.283   105890103.071       -2151.095          34.438    26983799.453   107271279.026       -2179.030          37.375  
E15  27560088.267   144829239.118        3193.321          37.750    27560093.599   110973077.529        2446.562          40.250    27560095.931   108151733.831        2384.409          40.875    27560095.095   109562407.723        2415.477          43.625  
E21  28615349.493   150374689.462          67.946          34.500    28615354.241   115222179.594          52.079          37.750    28615356.479   112292810.998          50.802          38.750    28615355.801   113757497.840          51.441          41.250  
E34  23872918.991   125453047.146        1323.987          48.000    23872920.565    96126373.182        1014.478          48.625    23872921.655    93682488.485         988.706          48.688    23872921.474    94904433.877        1001.591          51.688  
E36  24121113.617   126757293.752       -1605.980          46.688    24121116.138    97125719.980       -1230.497          48.625    24121117.657    94656426.262       -1199.196          49.125    24121117.280    95891074.667       -1214.843          52.000  
> 2023 09 10 11 31 09.0000000  0  9                     
E03  28561675.949   150092613.414        3265.842          30.188    28561686.735   115006079.837        2502.272          34.125    28561690.267   112082208.170        2438.718          34.813    28561688.909   113544149.045        2470.521          37.500  
E04  27111787.730   142473370.073       -2452.010          38.188    27111791.032   109167901.974       -1878.755          42.438    27111792.760   106392451.391       -1830.915          42.750    27111792.465   107780177.728       -1854.845          45.625  
E05  24280086.565   127592756.586        2195.652          46.563    24280088.300    97765900.975        1682.357          48.375    24280089.878    95280336.133        1639.571          48.250    24280089.582    96523120.597        1660.964          51.250  
E09  23623279.181   124141169.572        -621.377          47.750    23623279.707    95121163.749        -476.155          49.438    23623281.297    92702832.948        -463.956          49.000    23623280.920    93912000.390        -470.062          52.250  
E11  26984340.078   141803569.325       -2880.845          30.313    26984346.227   108654658.207       -2207.406          34.375    26984348.600   105892254.217       -2150.974          34.313    26984347.629   107273458.258       -2179.194          37.375  
E15  27559480.799   144826046.511        3192.479          37.938    27559486.072   110970631.223        2446.402          40.375    27559488.336   108149349.726        2384.113          40.938    27559487.576   109559992.519        2415.245          43.688  
E21  28615336.672   150374622.073          67.303          34.438    28615341.508   115222127.973          51.250          37.688    28615343.734   112292760.677          50.195          38.938    28615342.962   113757446.868          50.729          41.313  
E34  23872667.097   125451723.743        1323.267          48.000    23872668.706    96125359.149        1013.927          48.750    23872669.809    93681500.237         988.117          48.625    23872669.636    94903432.736        1001.012          51.688  
E36  24121419.420   126758900.202       -1606.576          46.750    24121421.830    97126950.899       -1231.002          48.625    24121423.348    94657625.886       -1199.715          49.188    24121422.987    95892289.938       -1215.361          51.938  
> 2023 09 10 11 31 10.0000000  0  9                     
E03  28561054.552   150089347.501        3265.774          30.250    28561065.135   115003577.391        2502.361          34.063    28561068.713   112079769.319        2438.888          34.688    28561067.398   113541678.396        2470.639          37.375  
E04  27112254.417   142475822.115       -2452.175          38.188    27112257.681   109169780.808       -1878.830          42.375    27112259.311   106394282.455       -1830.963          42.563    27112259.066   107782032.677       -1854.903          45.438  
E05  24279668.754   127590561.184        2195.300          46.563    24279670.525    97764218.782        1682.109          48.375    24279672.112    95278696.712        1639.272          48.188    24279671.808    96521459.789        1660.687          51.250  
E09  23623397.460   124141791.190        -621.704          47.688    23623397.986    95121640.049        -476.366          49.500    23623399.594    92703297.141        -464.242          48.875    23623399.208    93912470.637        -470.309          52.188  
E11  26984888.190   141806450.128       -2880.802          30.250    26984894.459   108656865.526       -2207.385          34.250    26984896.926   105894405.451       -2151.293          34.500    26984895.863   107275637.530       -2179.303          37.375  
E15  27558873.332   144822853.963        3192.607          37.813    27558878.558   110968184.992        2446.269          40.438    27558880.792   108146965.689        2384.072          40.750    27558880.034   109557577.383        2415.175          43.625  
E21  28615323.837   150374555.164          66.428          33.813    28615328.858   115222076.701          50.950          37.563    28615331.050   112292710.701          49.764          38.750    28615330.205   113757396.244          50.361          41.188  
E34  23872415.302   125450400.732        1322.853          48.063    23872417.009    96124345.412        1013.631          48.750    23872418.055    93680512.274         987.840          48.625    23872417.879    94902431.886        1000.736          51.688  
E36  24121725.187   126760507.018       -1606.987          46.688    24121727.628    97128182.091       -1231.240          48.625    24121729.150    94658825.775       -1199.981          49.063    24121728.752    95893505.479       -1215.613          51.938  
> 2023 09 10 11 31 11.0000000  0  9                     
E03  28560433.023   150086081.763        3266.161          30.125    28560443.642   115001075.097        2502.489          33.875    28560447.147   112077330.634        2438.774          34.750    28560445.985   113539207.904        2470.664          37.313  
E04  27112721.160   142478274.383       -2452.055          38.250    27112724.332   109171659.822       -1878.880          42.313    27112725.875   106396113.714       -1831.211          42.500    27112725.729   107783887.814       -1855.046          45.438  
E05  24279251.110   127588366.244        2194.974          46.563    24279252.853    97762536.945        1681.897          48.438    24279254.437    95277057.633        1639.113          48.188    24279254.122    96519799.331        1660.499          51.313  
E09  23623515.850   124142413.323        -622.183          47.813    23623516.372    95122116.744        -476.653          49.438    23623517.977    92703761.719        -464.570          48.875    23623517.589    93912941.273        -470.607          52.188  
E11  26985436.641   141809331.115       -2881.171          30.563    26985442.812   108659073.037       -2207.247          34.375    26985445.188   105896556.832       -2151.149          34.125    26985444.071   107277816.975       -2179.186          37.188  
E15  27558265.661   144819661.687        3192.427          37.813    27558271.091   110965738.964        2446.173          40.438    27558273.330   108144581.827        2384.112          40.875    27558272.560   109555162.439        2415.156          43.688  
E21  28615311.237   150374488.857          66.315          34.000    28615316.217   115222025.905          50.747          37.875    28615318.420   112292661.211          49.409          38.813    28615317.591   113757346.102          50.079          41.313  
E34  23872163.724   125449078.279        1322.481          48.125    23872165.327    96123332.103        1013.368          48.750    23872166.421    93679524.726         987.571          48.625    23872166.221    94901431.458        1000.471          51.688  
E36  24122031.074   126762114.361       -1607.281          46.750    24122033.527    97129413.694       -1231.594          48.688    24122035.057    94660026.068       -1200.262          49.063    24122034.620    95894721.426       -1215.926          51.938  
> 2023 09 10 11 31 12.0000000  0  9                     
E03  28559811.718   150082815.903        3265.855          30.563    28559822.201   114998572.661        2502.717          33.750    28559825.642   112074891.838        2439.179          34.438    28559824.488   113536737.295        2470.917          37.063  
E04  27113187.837   142480726.535       -2451.970          38.250    27113191.021   109173538.736       -1878.693          42.375    27113192.489   106397944.850       -1830.989          42.500    27113192.356   107785742.840       -1854.847          45.438  
E05  24278833.407   127586171.389        2194.945          46.625    24278835.189    97760855.169        1681.871          48.438    24278836.783    95275418.616        1639.132          48.125    24278836.455    96518138.935        1660.495          51.250  
E09  23623634.283   124143035.574        -622.210          47.750    23623634.798    95122593.535        -476.747          49.500    23623636.380    92704226.388        -464.592          49.000    23623635.998    93913412.003        -470.667          52.250  
E11  26985985.034   141812212.008       -2880.891          30.750    26985991.056   108661280.448       -2207.207          34.313    26985993.370   105898708.119       -2150.862          34.500    26985992.310   107279996.323       -2179.006          37.438  
E15  27557658.318   144816469.286        3192.470          37.875    27557663.533   110963292.839        2446.374          40.375    27557665.820   108142197.906        2384.097          40.563    27557665.081   109552747.418        2415.211          43.500  
E21  28615298.576   150374422.836          66.052          34.313    28615303.657   115221975.300          50.774          37.750    28615305.884   112292611.913          49.279          38.688    28615305.012   113757296.153          50.005          41.250  
E34  23871912.106   125447756.012        1322.282          48.188    23871913.699    96122318.941        1013.150          48.750    23871914.774    93678537.322         987.420          48.625    23871914.603    94900431.174        1000.290          51.688  
E36  24122336.923   126763721.845       -1607.461          46.688    24122339.432    97130645.398       -1231.690          48.688    24122340.965    94661226.454       -1200.355          49.000    24122340.519    95895937.472       -1216.016          51.875  
> 2023 09 10 11 31 13.0000000  0  9                     
E03  28559190.385   150079549.845        3265.843          30.188    28559200.700   114996070.088        2502.421          34.313    28559204.208   112072452.901        2438.667          34.688    28559202.972   113534266.536        2470.542          37.563  
E04  27113654.340   142483178.520       -2452.248          38.313    27113657.579   109175417.519       -1878.912          42.438    27113659.086   106399775.871       -1831.188          42.500    27113658.952   107787597.741       -1855.052          45.500  
E05  24278415.746   127583976.586        2194.436          46.625    24278417.550    97759173.445        1681.478          48.438    24278419.128    95273779.651        1638.640          48.125    24278418.800    96516478.590        1660.049          51.250  
E09  23623752.679   124143657.919        -622.716          47.813    23623753.225    95123070.400        -477.153          49.563    23623754.787    92704691.127        -465.062          48.875    23623754.433    93913882.805        -471.106          52.250  
E11  26986532.977   141815092.694       -2881.115          31.000    26986539.144   108663487.704       -2207.341          34.250    26986541.431   105900859.295       -2151.097          34.500    26986540.477   107282175.546       -2179.246          37.375  
E15  27557050.856   144813276.730        3192.183          38.188    27557055.989   110960846.593        2446.168          40.375    27557058.312   108139813.860        2383.877          40.563    27557057.557   109550332.271        2415.025          43.438  
E21  28615286.219   150374357.062          65.325          34.125    28615291.053   115221924.903          50.193          37.750    28615293.328   112292562.781          48.782          38.625    28615292.478   113757246.388          49.479          41.188  
E34  23871660.463   125446433.893        1321.673          48.250    23871662.044    96121305.884        1012.741          48.750    23871663.186    93677550.022         987.010          48.500    23871663.016    94899430.996         999.878          51.625  
E36  24122642.801   126765329.444       -1608.018          46.750    24122645.365    97131877.194       -1232.128          48.750    24122646.894    94662426.942       -1200.847          48.938    24122646.436    95897153.614       -1216.491          51.938  
> 2023 09 10 11 31 14.0000000  0  9                     
E03  28558569.012   150076283.567        3265.458          29.938    28558579.231   114993567.369        2502.205          34.063    28558582.695   112070013.789        2438.651          34.500    28558581.453   113531795.623        2470.436          37.250  
E04  27114121.023   142485630.324       -2452.427          38.125    27114124.200   109177296.185       -1879.233          42.375    27114125.780   106401606.768       -1831.396          42.500    27114125.521   107789452.522       -1855.312          45.438  
E05  24277998.106   127581781.837        2193.947          46.500    24277999.928    97757491.755        1681.087          48.375    24278001.506    95272140.714        1638.364          48.063    24278001.156    96514818.276        1659.729          51.188  
E09  23623871.070   124144280.357        -623.210          47.688    23623871.668    95123547.333        -477.510          49.438    23623873.219    92705155.932        -465.369          48.813    23623872.877    93914353.673        -471.436          52.188  
E11  26987080.860   141817973.206       -2881.475          30.875    26987087.261   108665694.869       -2207.703          34.375    26987089.409   105903010.323       -2151.405          34.375    26987088.613   107284354.637       -2179.534          37.375  
E15  27556443.381   144810084.019        3192.044          38.063    27556448.346   110958400.223        2445.991          40.375    27556450.770   108137429.691        2383.679          40.563    27556450.016   109547917.001        2414.831          43.500  
E21  28615273.376   150374291.493          64.723          34.375    28615278.595   115221874.678          49.426          38.000    28615280.832   112292513.828          48.200          38.688    28615280.020   113757196.799          48.807          41.313  
E34  23871408.913   125445111.915        1321.186          48.188    23871410.487    96120292.944        1012.320          48.750    23871411.599    93676562.833         986.578          48.500    23871411.447    94898430.932         999.452          51.625  
E36  24122948.632   126766937.154       -1608.488          46.688    24122951.284    97133109.077       -1232.487          48.688    24122952.816    94663627.498       -1201.105          48.938    24122952.367    95898369.834       -1216.798          51.875  
> 2023 09 10 11 31 15.0000000  0  9                     
E03  28557947.198   150073017.642        3266.724          30.313    28557957.732   114991064.941        2502.581          34.188    28557961.325   112067574.975        2439.329          34.938    28557959.951   113529325.000        2470.956          37.563  
E04  27114587.586   142488082.566       -2451.963          38.188    27114590.878   109179175.165       -1878.679          42.375    27114592.467   106403437.988       -1830.951          42.438    27114592.152   107791307.623       -1854.820          45.438  
E05  24277580.605   127579587.736        2194.525          46.625    24277582.410    97755810.565        1681.487          48.438    24277584.000    95270502.261        1638.734          48.063    24277583.631    96513158.454        1660.110          51.250  
E09  23623989.625   124144903.488        -622.782          47.688    23623990.257    95124024.799        -477.226          49.438    23623991.751    92705621.257        -465.078          48.875    23623991.456    93914825.069        -471.149          52.188  
E11  26987629.494   141820854.138       -2880.302          30.438    26987635.530   108667902.345       -2207.316          34.125    26987637.815   105905161.648       -2150.929          34.125    26987636.847   107286534.039       -2179.104          37.063  
E15  27555835.996   144806891.751        3192.745          37.875    27555840.873   110955954.212        2446.311          40.375    27555843.293   108135045.860        2384.156          40.625    27555842.537   109545502.081        2415.221          43.500  
E21  28615261.077   150374226.746          65.169          34.625    28615266.309   115221825.053          49.938          37.938    28615268.448   112292465.474          48.585          39.000    28615267.700   113757147.809          49.256          41.500  
E34  23871157.495   125443790.687        1321.526          48.250    23871159.054    96119280.575        1012.590          48.750    23871160.163    93675576.206         986.840          48.563    23871160.021    94897431.434         999.715          51.688  
E36  24123254.647   126768545.587       -1608.153          46.688    24123257.377    97134341.504       -1232.208          48.625    24123258.845    94664828.595       -1200.838          49.000    24123258.445    95899586.596       -1216.522          51.875  
> 2023 09 10 11 31 16.0000000  0  9                     
E03  28557325.541   150069751.989        3265.884          30.000    28557336.217   114988562.641        2502.207          34.375    28557339.951   112065136.293        2438.844          34.750    28557338.507   113526854.512        2470.457          37.563  
E04  27115054.364   142490535.020       -2452.533          38.125    27115057.547   109181054.327       -1879.195          42.375    27115059.118   106405269.354       -1831.395          42.313    27115058.847   107793162.887       -1855.291          45.313  
E05  24277163.165   127577394.076        2193.476          46.500    24277164.924    97754129.705        1680.716          48.438    24277166.556    95268864.139        1638.003          48.125    24277166.192    96511498.963        1659.360          51.250  
E09  23624108.264   124145527.099        -623.803          47.563    23624108.928    95124502.627        -477.948          49.438    23624110.415    92706086.938        -465.813          48.938    23624110.119    93915296.825        -471.882          52.250  
E11  26988177.691   141823735.278       -2881.360          30.625    26988183.868   108670109.940       -2207.688          34.000    26988186.159   105907313.149       -2151.885          34.250    26988185.144   107288713.590       -2179.829          37.125  
E15  27555228.638   144803699.707        3191.985          37.938    27555233.479   110953508.362        2445.788          40.375    27555235.810   108132662.189        2383.664          40.750    27555235.112   109543087.319        2414.727          43.563  
E21  28615248.846   150374162.600          63.867          34.875    28615254.123   115221775.913          48.952          37.938    28615256.264   112292417.605          47.644          39.000    28615255.520   113757099.304          48.283          41.500  
E34  23870906.180   125442469.989        1320.508          48.188    23870907.702    96118268.607        1011.864          48.750    23870908.842    93674589.967         986.120          48.563    23870908.698    94896432.331         998.987          51.688  
E36  24123560.807   126770154.505       -1609.054          46.563    24123563.563    97135574.315       -1232.916          48.625    24123565.019    94666030.060       -1201.586          49.000    24123564.617    95900803.734       -1217.258          51.875  
> 2023 09 10 11 31 17.0000000  0  9                     
E03  28556704.261   150066486.386        3265.681          29.250    28556715.035   114986060.451        2502.116          34.563    28556718.480   112062697.715        2438.815          34.750    28556717.064   113524384.124        2470.498          37.688  
E04  27115521.179   142492987.649       -2452.630          38.188    27115524.306   109182933.597       -1879.220          42.438    27115525.786   106407100.859       -1831.480          42.438    27115525.559   107795018.275       -1855.353          45.438  
E05  24276745.851   127575200.798        2193.194          46.563    24276747.587    97752449.149        1680.476          48.500    24276749.215    95267226.304        1637.781          48.188    24276748.833    96509839.767        1659.129          51.313  
E09  23624227.016   124146151.132        -624.146          47.625    23624227.710    95124980.783        -478.214          49.563    23624229.155    92706552.935        -466.023          49.000    23624228.877    93915768.901        -472.115          52.313  
E11  26988725.910   141826616.599       -2881.654          30.500    26988732.178   108672317.702       -2207.715          34.188    26988734.394   105909464.762       -2151.586          34.313    26988733.464   107290893.275       -2179.664          37.250  
E15  27554621.218   144800507.852        3191.928          38.125    27554626.071   110951062.646        2445.770          40.500    27554628.420   108130278.666        2383.444          40.625    27554627.727   109540672.701        2414.598          43.563  
E21  28615236.936   150374099.033          63.540          34.750    28615241.954   115221727.221          48.419          38.125    28615244.244   112292370.113          47.416          38.875    28615243.420   113757051.210          47.956          41.563  
E34  23870654.873   125441149.766        1320.081          48.125    23870656.465    96117257.015        1011.511          48.813    23870657.604    93673604.093         985.782          48.688    23870657.464    94895433.598         998.649          51.813  
E36  24123867.112   126771763.882       -1609.526          46.563    24123869.820    97136807.465       -1233.192          48.750    24123871.245    94667231.865       -1201.952          49.125    24123870.878    95902021.211       -1217.578          52.000  
> 2023 09 10 11 31 18.0000000  0  9                     
E03  28556082.951   150063220.908        3266.064          29.563    28556093.506   114983558.316        2502.421          34.250    28556097.016   112060259.226        2438.735          34.875    28556095.660   113521913.814        2470.578          37.625  
E04  27115987.961   142495440.389       -2452.434          38.125    27115991.019   109184812.965       -1879.007          42.500    27115992.501   106408932.443       -1831.208          42.438    27115992.303   107796873.752       -1855.108          45.500  
E05  24276328.549   127573007.844        2193.302          46.500    24276330.290    97750768.837        1680.541          48.500    24276331.890    95265588.713        1637.827          48.188    24276331.532    96508180.816        1659.183          51.313  
E09  23624345.856   124146775.539        -624.089          47.625    23624346.531    95125459.223        -478.153          49.500    23624347.991    92707019.219        -466.042          49.000    23624347.706    93916241.262        -472.100          52.250  
E11  26989274.022   141829497.946       -2880.779          30.250    26989280.431   108674525.512       -2207.595          34.000    26989282.680   105911616.440       -2151.457          34.063    26989281.801   107293073.020       -2179.537          37.000  
E15  27554013.884   144797316.108        3191.980          38.000    27554018.741   110948617.036        2445.994          40.438    27554020.959   108127895.227        2383.562          40.750    27554020.360   109538258.175        2414.780          43.625  
E21  28615224.692   150374035.987          63.275          34.938    28615229.935   115221678.899          48.470          38.188    28615232.291   112292323.022          47.220          39.125    28615231.427   113757003.505          47.833          41.688  
E34  23870403.746   125439829.970        1320.117          48.188    23870405.300    96116245.746        1011.467          48.813    23870406.491    93672618.532         985.739          48.563    23870406.311    94894435.182         998.606          51.750  
E36  24124173.453   126773373.633       -1609.445          46.563    24124176.115    97138040.917       -1233.232          48.750    24124177.554    94668433.953       -1201.863          49.125    24124177.207    95903238.982       -1217.551          52.000  
> 2023 09 10 11 31 19.0000000  0  9                     
E03  28555461.750   150059955.856        3265.293          29.875    28555472.050   114981056.516        2502.103          34.375    28555475.590   112057821.034        2438.236          34.875    28555474.342   113519443.821        2470.147          37.688  
E04  27116454.582   142497893.597       -2452.943          38.000    27116457.844   109186692.702       -1879.630          42.375    27116459.260   106410764.382       -1831.742          42.375    27116459.140   107798729.589       -1855.682          45.375  
E05  24275911.382   127570815.605        2192.406          46.688    24275913.102    97749089.071        1679.871          48.500    24275914.726    95263951.661        1637.111          48.125    24275914.365    96506522.406        1658.496          51.313  
E09  23624464.835   124147400.700        -625.034          47.563    23624465.482    95125938.246        -478.957          49.500    23624466.948    92707486.060        -466.759          49.000    23624466.669    93916714.195        -472.860          52.313  
E11  26989822.783   141832379.818       -2881.146          30.125    26989828.703   108676733.706       -2208.153          33.563    26989831.021   105913768.481       -2151.701          34.250    26989830.183   107295253.139       -2179.930          36.938  
E15  27553406.655   144794124.873        3191.430          38.063    27553411.404   110946171.802        2445.396          40.438    27553413.725   108125512.160        2383.186          40.688    27553413.096   109535844.026        2414.269          43.563  
E21  28615212.926   150373973.794          62.293          34.875    28615218.092   115221631.254          47.848          38.250    28615220.396   112292276.597          46.390          38.938    28615219.617   113756956.469          47.108          41.625  
E34  23870152.729   125438510.988        1319.054          48.250    23870154.342    96115235.096        1010.706          48.750    23870155.480    93671633.568         985.055          48.625    23870155.319    94893437.376         997.882          51.688  
E36  24124479.920   126774984.169       -1610.439          46.625    24124482.595    97139274.963       -1234.015          48.688    24124484.022    94669636.621       -1202.575          49.125    24124483.683    95904457.338       -1218.293          52.000  
> 2023 09 10 11 31 20.0000000  0  9                     
E03  28554840.272   150056690.639        3265.288          30.375    28554850.633   114978554.619        2501.985          34.375    28554854.300   112055382.738        2438.348          34.875    28554852.987   113516973.721        2470.180          37.688  
E04  27116921.415   142500346.712       -2453.330          38.125    27116924.676   109188572.345       -1879.644          42.313    27116926.087   106412596.250       -1831.966          42.375    27116925.942   107800585.345       -1855.802          45.313  
E05  24275494.303   127568623.474        2191.980          46.625    24275495.957    97747409.389        1679.586          48.500    24275497.608    95262314.675        1636.881          48.188    24275497.212    96504864.072        1658.234          51.313  
E09  23624583.865   124148026.008        -625.494          47.500    23624584.473    95126417.378        -479.288          49.375    23624585.942    92707953.008        -467.076          49.000    23624585.663    93917187.235        -473.184          52.250  
E11  26990371.297   141835261.615       -2881.731          30.250    26990376.863   108678941.810       -2208.245          33.563    26990379.578   105915920.449       -2152.239          34.063    26990378.596   107297433.175       -2180.255          36.750  
E15  27552799.315   144790933.520        3191.385          38.063    27552804.155   110943726.495        2445.221          40.438    27552806.397   108123129.015        2383.054          40.563    27552805.800   109533429.798        2414.157          43.563  
E21  28615201.275   150373911.899          61.673          35.125    28615206.326   115221583.831          47.077          38.188    28615208.597   112292230.368          46.134          39.000    28615207.817   113756909.643          46.618          41.563  
E34  23869901.785   125437192.195        1318.630          48.125    23869903.388    96114224.591        1010.348          48.625    23869904.531    93670648.763         984.633          48.625    23869904.371    94892439.720         997.492          51.688  
E36  24124786.406   126776594.862       -1610.816          46.500    24124789.081    97140509.128       -1234.312          48.625    24124790.535    94670839.414       -1202.908          49.125    24124790.190    95905675.817       -1218.612          51.938  
> 2023 09 10 11 31 21.0000000  0  9                     
E03  28554218.955   150053424.951        3265.661          29.813    28554229.214   114976052.320        2502.140          34.438    28554232.887   112052944.080        2438.564          34.750    28554231.512   113514503.241        2470.355          37.688  
E04  27117388.048   142502799.316       -2452.764          38.250    27117391.453   109190451.616       -1879.173          42.375    27117392.776   106414427.740       -1831.411          42.375    27117392.654   107802440.727       -1855.307          45.313  
E05  24275077.088   127566431.072        2192.296          46.563    24275078.729    97745729.496        1679.829          48.563    24275080.432    95260677.494        1637.081          48.250    24275080.014    96503205.536        1658.458          51.375  
E09  23624702.817   124148651.085        -625.181          47.500    23624703.464    95126896.326        -479.032          49.500    23624704.909    92708419.783        -466.856          49.000    23624704.604    93917660.097        -472.940          52.313  
E11  26990919.765   141838142.871       -2881.376          30.563    26990925.249   108681149.503       -2207.680          33.750    26990927.883   105918072.017       -2151.415          34.125    26990926.871   107299612.804       -2179.575          36.938  
E15  27552191.706   144787741.719        3191.759          37.688    27552196.785   110941280.813        2445.662          40.375    27552199.052   108120745.515        2383.574          40.750    27552198.402   109531015.208        2414.632          43.563  
E21  28615189.468   150373849.907          61.745          34.875    28615194.569   115221536.318          47.488          38.188    28615196.768   112292184.081          46.109          39.188    28615196.007   113756862.743          46.783          41.750  
E34  23869650.800   125435873.232        1318.808          48.125    23869652.404    96113213.959        1010.518          48.813    23869653.544    93669663.825         984.821          48.688    23869653.375    94891441.935         997.666          51.813  
E36  24125092.904   126778205.360       -1610.625          46.500    24125095.542    97141743.141       -1234.105          48.688    24125097.017    94672042.054       -1202.740          49.250    24125096.653    95906894.143       -1218.421          52.063  
> 2023 09 10 11 31 22.0000000  0  9                     
E03  28553597.273   150050158.827        3266.071          30.313    28553607.812   114973549.709        2503.171          34.438    28553611.296   112050505.052        2439.729          34.625    28553609.952   113512032.425        2471.450          37.563  
E04  27117854.784   142505251.554       -2451.716          38.125    27117858.060   109192330.591       -1878.407          42.438    27117859.450   106416258.955       -1830.770          42.438    27117859.290   107804295.820       -1854.584          45.438  
E05  24274659.831   127564238.505        2193.004          46.625    24274661.485    97744049.476        1680.464          48.563    24274663.236    95259040.186        1637.700          48.250    24274662.790    96501546.871        1659.077          51.375  
E09  23624821.778   124149276.034        -624.450          47.500    23624822.366    95127375.183        -478.446          49.500    23624823.815    92708886.466        -466.308          49.125    23624823.531    93918132.867        -472.381          52.313  
E11  26991467.869   141841023.711       -2880.250          30.250    26991473.479   108683356.900       -2207.068          33.875    26991476.136   105920223.298       -2150.815          34.000    26991475.110   107301792.144       -2178.967          36.938  
E15  27551584.130   144784549.527        3192.845          37.813    27551589.263   110938834.856        2446.516          40.500    27551591.602   108118361.741        2384.321          40.813    27551590.941   109528600.343        2415.427          43.688  
E21  28615177.622   150373787.912          62.408          34.875    28615182.744   115221488.829          47.765          38.188    28615185.016   112292137.785          46.633          39.188    28615184.197   113756815.851          47.186          41.688  
E34  23869399.779   125434554.200        1319.503          48.188    23869401.398    96112203.264        1011.101          48.813    23869402.522    93668678.827         985.381          48.750    23869402.373    94890444.088         998.240          51.875  
E36  24125399.339   126779815.737       -1609.896          46.500    24125402.023    97142977.069       -1233.547          48.688    24125403.478    94673244.610       -1202.231          49.188    24125403.102    95908112.386       -1217.896          52.000  
> 2023 09 10 11 31 23.0000000  0  9                     
E03  28552975.723   150046892.570        3266.406          30.375    28552986.274   114971047.014        2502.691          34.438    28552989.761   112048066.007        2438.946          34.750    28552988.396   113509561.550        2470.838          37.625  
E04  27118321.511   142507703.730       -2452.301          38.188    27118324.689   109194209.538       -1878.941          42.438    27118326.148   106418090.122       -1831.246          42.375    27118325.922   107806150.877       -1855.091          45.375  
E05  24274242.580   127562046.107        2192.189          46.563    24274244.269    97742369.597        1679.706          48.625    24274246.050    95257403.018        1636.983          48.250    24274245.601    96499888.347        1658.345          51.438  
E09  23624940.727   124149901.202        -625.389          47.438    23624941.320    95127854.215        -479.254          49.625    23624942.787    92709353.318        -467.024          49.000    23624942.494    93918605.808        -473.142          52.313  
E11  26992016.166   141843904.509       -2880.660          29.750    26992021.553   108685564.241       -2207.134          33.750    26992024.398   105922374.543       -2151.224          34.125    26992023.286   107303971.438       -2179.166          36.875  
E15  27550976.405   144781357.302        3192.307          37.750    27550981.815   110936388.883        2445.808          40.500    27550984.142   108115977.951        2383.800          40.625    27550983.466   109526185.461        2414.810          43.563  
E21  28615165.855   150373726.282          61.445          34.813    28615171.011   115221441.601          47.065          38.000    28615173.263   112292091.766          45.862          39.125    28615172.486   113756769.226          46.474          41.625  
E34  23869148.780   125433235.434        1318.525          48.063    23869150.430    96111192.791        1010.252          48.875    23869151.587    93667694.045         984.579          48.625    23869151.422    94889446.461         997.416          51.813  
E36  24125705.823   126781426.360       -1610.866          46.375    24125708.533    97144211.179       -1234.272          48.750    24125710.010    94674447.343       -1202.864          49.125    24125709.596    95909330.808       -1218.566          52.000  
> 2023 09 10 11 31 24.0000000  0  9                     
E03  28552354.513   150043627.527        3265.031          30.125    28552365.043   114968545.232        2501.628          34.438    28552368.357   112045627.842        2437.604          34.688    28552367.096   113507091.577        2469.613          37.625  
E04  27118788.379   142510157.105       -2453.848          38.125    27118791.512   109196089.391       -1880.127          42.500    27118792.998   106419922.180       -1832.351          42.500    27118792.795   107808006.833       -1856.238          45.500  
E05  24273825.636   127559855.135        2190.454          46.563    24273827.349    97740690.800        1678.369          48.688    24273829.121    95255766.901        1635.674          48.188    24273828.671    96498230.891        1657.030          51.500  
E09  23625059.969   124150527.824        -627.200          47.500    23625060.537    95128334.357        -480.603          49.563    23625062.035    92709821.252        -468.350          49.063    23625061.734    93919079.847        -474.479          52.375  
E11  26992564.630   141846786.512       -2882.436          30.188    26992570.103   108687772.529       -2208.877          33.688    26992572.654   105924526.655       -2152.424          34.125    26992571.717   107306151.636       -2180.653          36.938  
E15  27550369.139   144778166.300        3190.470          37.500    27550374.612   110933943.824        2444.677          40.500    27550376.987   108113595.054        2382.629          40.688    27550376.220   109523771.482        2413.663          43.563  
E21  28615154.468   150373666.241          59.526          35.188    28615159.572   115221395.591          45.603          38.375    28615161.839   112292046.932          44.440          39.375    28615161.066   113756723.806          44.996          41.875  
E34  23868898.080   125431918.188        1316.559          48.063    23868899.752    96110183.473        1008.845          48.875    23868900.923    93666710.382         983.189          48.625    23868900.756    94888449.971         996.025          51.813  
E36  24126012.617   126783038.458       -1612.656          46.375    24126015.329    97145446.426       -1235.733          48.750    24126016.807    94675651.182       -1204.251          49.188    24126016.376    95910550.350       -1219.989          52.063  
> 2023 09 10 11 31 25.0000000  0  9                     
E03  28551733.343   150040363.154        3264.650          30.688    28551743.844   114966043.945        2501.571          34.563    28551747.130   112043190.137        2438.088          34.938    28551745.889   113504622.084        2469.837          37.813  
E04  27119255.341   142512611.204       -2453.997          38.188    27119258.543   109197969.801       -1880.386          42.563    27119260.032   106421754.783       -1832.497          42.500    27119259.793   107809863.340       -1856.427          45.563  
E05  24273408.819   127557665.088        2190.146          46.625    24273410.639    97739012.715        1678.128          48.688    24273412.340    95254131.482        1635.436          48.250    24273411.929    96496574.138        1656.785          51.438  
E09  23625179.460   124151155.429        -627.603          47.438    23625179.994    95128815.242        -480.873          49.563    23625181.459    92710289.914        -468.673          49.125    23625181.162    93919554.620        -474.777          52.375  
E11  26993113.217   141849669.191       -2882.417          30.000    26993118.791   108689981.332       -2208.625          33.688    26993121.252   105926679.311       -2152.342          34.188    26993120.260   107308332.365       -2180.495          36.875  
E15  27549762.046   144774975.994        3190.634          37.563    27549767.537   110931499.310        2444.620          40.563    27549769.906   108111212.706        2382.489          40.625    27549769.135   109521358.052        2413.537          43.625  
E21  28615143.481   150373607.310          58.891          35.000    28615148.345   115221350.445          45.156          38.438    28615150.723   112292002.930          43.883          39.500    28615149.855   113756679.230          44.530          42.063  
E34  23868647.638   125430601.963        1316.289          48.125    23868649.282    96109174.940        1008.512          48.813    23868650.463    93665727.491         982.860          48.688    23868650.291    94887454.259         995.690          51.813  
E36  24126319.588   126784651.552       -1613.069          46.375    24126322.272    97146682.430       -1236.011          48.750    24126323.772    94676855.761       -1204.573          49.250    24126323.344    95911770.642       -1220.286          52.063  
> 2023 09 10 11 31 26.0000000  0  9                     
E03  28551112.260   150037098.369        3264.977          30.813    28551122.482   114963542.346        2502.112          34.750    28551125.759   112040752.144        2438.579          34.750    28551124.624   113502152.288        2470.304          37.813  
E04  27119722.317   142515064.906       -2453.456          38.188    27119725.446   109199849.900       -1879.863          42.563    27119726.998   106423587.085       -1832.108          42.500    27119726.725   107811719.540       -1855.963          45.563  
E05  24272992.066   127555474.884        2190.327          46.500    24272993.890    97737334.506        1678.359          48.625    24272995.575    95252495.935        1635.659          48.250    24272995.147    96494917.260        1657.010          51.438  
E09  23625298.901   124151782.903        -627.331          47.375    23625299.383    95129296.033        -480.647          49.500    23625300.885    92710758.480        -468.469          49.063    23625300.573    93920029.298        -474.556          52.313  
E11  26993661.905   141852551.487       -2881.726          30.438    26993667.375   108692189.861       -2208.442          33.875    26993669.425   105928831.663       -2151.946          34.125    26993668.776   107310512.811       -2180.196          37.000  
E15  27549154.854   144771785.368        3191.012          37.688    27549160.399   110929054.535        2445.012          40.500    27549162.741   108108830.070        2382.815          40.625    27549161.978   109518944.346        2413.906          43.563  
E21  28615132.346   150373548.380          59.088          35.125    28615137.104   115221305.298          45.094          38.250    28615139.462   112291958.916          44.188          39.375    28615138.627   113756634.651          44.629          41.875  
E34  23868397.208   125429285.670        1316.441          48.063    23868398.808    96108166.348        1008.717          48.813    23868399.989    93664744.545         983.035          48.625    23868399.813    94886458.490         995.877          51.750  
E36  24126626.565   126786264.539       -1612.858          46.438    24126629.209    97147918.348       -1235.805          48.750    24126630.695    94678060.262       -1204.385          49.188    24126630.294    95912990.852       -1220.101          52.000  
> 2023 09 10 11 31 27.0000000  0  9                     
E03  28550491.069   150033833.432        3264.782          30.813    28550501.209   114961040.666        2501.417          34.875    28550504.405   112038314.051        2437.998          34.938    28550503.283   113499682.401        2469.701          38.000  
E04  27120189.165   142517518.511       -2453.777          38.313    27120192.344   109201729.941       -1880.292          42.625    27120193.961   106425419.316       -1832.369          42.500    27120193.620   107813575.677       -1856.331          45.563  
E05  24272575.329   127553284.792        2189.748          46.688    24272577.134    97735656.388        1677.862          48.688    24272578.826    95250860.482        1635.145          48.250    24272578.383    96493260.475        1656.505          51.500  
E09  23625418.285   124152410.533        -628.009          47.500    23625418.837    95129776.945        -481.229          49.563    23625420.315    92711227.161        -468.897          49.188    23625420.001    93920504.095        -475.061          52.375  
E11  26994210.148   141855433.758       -2882.636          30.250    26994215.809   108694398.270       -2208.476          33.813    26994218.025   105930983.976       -2152.415          34.125    26994217.238   107312693.169       -2180.449          36.875  
E15  27548547.709   144768594.625        3190.468          37.875    27548553.208   110926609.672        2444.646          40.438    27548555.562   108106447.386        2382.479          40.625    27548554.799   109516530.571        2413.595          43.563  
E21  28615121.245   150373489.735          58.301          35.563    28615125.985   115221260.366          44.582          38.125    28615128.293   112291915.145          43.485          39.375    28615127.502   113756590.301          44.036          41.750  
E34  23868146.721   125427969.595        1315.584          48.188    23868148.356    96107157.926        1008.106          48.813    23868149.530    93663761.758         982.482          48.750    23868149.362    94885462.885         995.305          51.813  
E36  24126933.529   126787877.702       -1613.570          46.438    24126936.162    97149154.408       -1236.333          48.750    24126937.705    94679264.899       -1204.947          49.250    24126937.267    95914211.201       -1220.645          52.063  
> 2023 09 10 11 31 28.0000000  0  9                     
E03  28549869.638   150030568.635        3264.881          30.750    28549879.818   114958539.096        2501.488          34.875    28549883.252   112035876.075        2437.988          35.063    28549882.005   113497212.625        2469.748          38.000  
E04  27120656.151   142519972.293       -2453.851          38.250    27120659.346   109203610.103       -1880.204          42.563    27120660.913   106427251.687       -1832.334          42.563    27120660.574   107815431.942       -1856.257          45.625  
E05  24272158.665   127551095.110        2189.594          46.688    24272160.438    97733978.582        1677.710          48.688    24272162.161    95249225.328        1635.149          48.313    24272161.704    96491603.994        1656.432          51.500  
E09  23625537.874   124153038.613        -628.163          47.500    23625538.353    95130258.202        -481.322          49.563    23625539.823    92711696.186        -469.090          49.188    23625539.523    93920979.235        -475.201          52.375  
E11  26994758.495   141858316.136       -2882.680          30.313    26994764.342   108696606.826       -2208.445          33.813    26994766.637   105933136.370       -2152.229          34.188    26994765.741   107314873.640       -2180.300          36.938  
E15  27547940.657   144765404.076        3190.533          37.938    27547945.997   110924164.978        2444.669          40.438    27547948.360   108104064.827        2382.686          40.625    27547947.651   109514116.944        2413.683          43.563  
E21  28615110.222   150373431.697          57.965          35.313    28615114.781   115221215.888          44.369          38.188    28615117.124   112291871.797          43.243          39.375    28615116.457   113756546.386          43.830          41.813  
E34  23867896.403   125426654.020        1315.427          48.125    23867897.982    96106149.891        1007.924          48.813    23867899.177    93662779.349         982.321          48.750    23867899.018    94884467.663         995.127          51.813  
E36  24127240.604   126789491.337       -1613.789          46.500    24127243.241    97150390.827       -1236.488          48.750    24127244.756    94680469.880       -1205.042          49.250    24127244.329    95915431.900       -1220.771          52.063  
> 2023 09 10 11 31 29.0000000  0  9                     
E03  28549248.317   150027303.478        3265.308          31.313    28549258.518   114956037.209        2502.068          34.750    28549261.891   112033437.813        2438.386          35.188    28549260.673   113494742.553        2470.216          38.063  
E04  27121122.882   142522425.726       -2453.190          38.250    27121126.247   109205490.014       -1879.727          42.563    27121127.766   106429083.798       -1831.920          42.625    27121127.460   107817287.954       -1855.830          45.625  
E05  24271741.978   127548905.307        2189.907          46.750    24271743.726    97732300.686        1677.990          48.563    24271745.441    95247590.092        1635.304          48.375    24271744.998    96489947.428        1656.641          51.500  
E09  23625657.359   124153666.606        -627.922          47.500    23625657.845    95130739.393        -481.106          49.438    23625659.346    92712165.145        -468.874          49.125    23625659.027    93921454.310        -474.990          52.313  
E11  26995307.008   141861198.108       -2881.556          30.188    26995312.770   108698815.123       -2207.769          33.688    26995315.096   105935288.526       -2152.126          34.063    26995314.185   107317053.869       -2179.977          36.813  
E15  27547333.703   144762213.185        3191.184          37.813    27547338.772   110921720.025        2445.210          40.313    27547341.100   108101682.030        2382.976          40.500    27547340.440   109511703.070        2414.111          43.375  
E21  28615099.121   150373373.669          58.131          35.313    28615103.795   115221171.448          44.525          38.000    28615106.141   112291828.470          43.381          39.438    28615105.412   113756502.502          43.969          41.750  
E34  23867646.077   125425338.403        1315.754          48.125    23867647.582    96105141.829        1008.128          48.688    23867648.825    93661796.915         982.491          48.750    23867648.666    94883472.415         995.314          51.750  
E36  24127547.599   126791104.901       -1613.472          46.438    24127550.270    97151627.196       -1236.285          48.563    24127551.789    94681674.820       -1204.878          49.250    24127551.382    95916652.555       -1220.581          52.000  
> 2023 09 10 11 31 30.0000000  0  9                     
E03  28548627.307   150024038.255        3265.281          31.750    28548637.259   114953535.283        2501.820          35.563    28548640.572   112030999.502        2438.513          35.563    28548639.323   113492272.436        2470.154          38.563  
E04  27121589.727   142524879.152       -2453.637          38.250    27121593.097   109207369.899       -1879.985          42.563    27121594.700   106430915.902       -1832.268          42.625    27121594.333   107819143.948       -1856.111          45.625  
E05  24271325.284   127546715.710        2189.292          46.688    24271327.040    97730622.944        1677.474          48.500    24271328.768    95245955.002        1634.871          48.438    24271328.336    96488291.013        1656.176          51.438  
E09  23625776.882   124154294.860        -628.566          47.438    23625777.400    95131220.783        -481.667          49.375    23625778.900    92712634.290        -469.388          49.250    23625778.580    93921929.578        -475.528          52.313  
E11  26995855.420   141864080.100       -2882.050          30.250    26995861.088   108701023.395       -2208.227          33.688    26995863.410   105937440.629       -2152.134          34.188    26995862.643   107319234.056       -2180.203          36.938  
E15  27546726.544   144759022.318        3190.790          37.813    27546731.533   110919275.078        2444.662          40.188    27546733.782   108099299.238        2382.681          40.563    27546733.243   109509289.200        2413.688          43.375  
E21  28615088.085   150373316.063          57.151          35.125    28615092.743   115221127.302          43.777          38.250    28615095.158   112291785.451          42.828          39.688    28615094.488   113756458.921          43.315          42.000  
E34  23867395.805   125424023.105        1315.016          48.125    23867397.286    96104134.001        1007.522          48.625    23867398.533    93660814.709         981.969          48.813    23867398.371    94882477.398         994.751          51.750  
E36  24127854.709   126792718.739       -1614.114          46.500    24127857.339    97152863.772       -1236.790          48.500    24127858.883    94682879.959       -1205.434          49.375    24127858.488    95917873.412       -1221.111          52.000  
> 2023 09 10 11 31 31.0000000  0  9                     
E03  28548005.616   150020773.552        3264.262          31.563    28548015.957   114951033.738        2501.410          35.188    28548019.357   112028561.541        2437.865          35.375    28548018.076   113489802.681        2469.672          38.250  
E04  27122056.600   142527333.062       -2454.259          38.500    27122060.023   109209250.178       -1880.448          42.438    27122061.726   106432748.364       -1832.710          42.813    27122061.287   107821000.319       -1856.595          45.625  
E05  24270908.718   127544526.817        2188.551          46.688    24270910.490    97728945.745        1676.946          48.500    24270912.222    95244320.448        1634.241          48.438    24270911.809    96486635.136        1655.593          51.500  
E09  23625896.558   124154923.848        -629.335          47.438    23625897.079    95131702.737        -482.239          49.313    23625898.583    92713103.994        -469.988          49.250    23625898.276    93922405.407        -476.113          52.313  
E11  26996404.024   141866962.594       -2882.755          30.563    26996409.460   108703232.048       -2208.955          33.875    26996411.753   105939593.132       -2152.644          34.125    26996411.204   107321414.633       -2180.781          36.875  
E15  27546119.459   144755831.948        3190.046          38.000    27546124.532   110916830.504        2444.480          40.125    27546126.692   108096916.835        2382.182          40.500    27546126.162   109506875.713        2413.316          43.313  
E21  28615077.315   150373259.311          56.329          35.688    28615081.842   115221083.821          43.111          38.375    28615084.416   112291743.081          42.065          39.938    28615083.707   113756415.995          42.633          42.188  
E34  23867145.677   125422708.613        1314.076          48.125    23867147.136    96103126.791        1006.869          48.625    23867148.401    93659833.108         981.317          48.813    23867148.233    94881482.993         994.089          51.750  
E36  24128161.936   126794333.343       -1614.917          46.375    24128164.591    97154100.941       -1237.464          48.500    24128166.141    94684085.666       -1205.992          49.375    24128165.742    95919094.850       -1221.734          52.000  
> 2023 09 10 11 31 32.0000000  0  9                     
E03  28547384.639   150017509.217        3264.409          31.938    28547394.742   114948532.500        2501.084          35.125    28547397.965   112026123.938        2437.380          35.375    28547396.914   113487333.261        2469.236          38.250  
E04  27122523.701   142529787.446       -2454.523          38.250    27122527.035   109211130.804       -1880.799          42.375    27122528.758   106434581.178       -1832.943          42.750    27122528.339   107822857.039       -1856.869          45.563  
E05  24270492.202   127542338.617        2187.920          46.688    24270494.123    97727269.074        1676.436          48.500    24270495.826    95242686.403        1633.867          48.438    24270495.403    96484979.777        1655.156          51.500  
E09  23626016.396   124155553.579        -629.985          47.500    23626016.907    95132185.254        -482.716          49.375    23626018.399    92713574.243        -470.455          49.250    23626018.107    93922881.790        -476.585          52.313  
E11  26996952.361   141869845.519       -2882.756          30.313    26996958.261   108705441.040       -2208.784          33.813    26996960.360   105941745.959       -2152.749          34.125    26996959.827   107323595.540       -2180.746          36.875  
E15  27545512.659   144752642.056        3189.741          37.875    27545517.571   110914386.301        2444.127          40.188    27545519.636   108094534.762        2382.038          40.438    27545519.130   109504462.573        2413.102          43.313  
E21  28615066.837   150373203.454          55.400          35.500    28615071.190   115221041.009          42.513          38.250    28615073.776   112291701.352          41.463          39.688    28615073.109   113756373.724          41.984          42.000  
E34  23866895.685   125421394.896        1313.422          48.000    23866897.151    96102120.178        1006.381          48.625    23866898.401    93658852.088         980.793          48.813    23866898.243    94880489.176         993.588          51.750  
E36  24128469.392   126795948.698       -1615.604          46.375    24128472.000    97155338.678       -1237.942          48.500    24128473.542    94685291.940       -1206.484          49.313    24128473.135    95920316.856       -1222.213          52.000  
> 2023 09 10 11 31 33.0000000  0  9                     
E03  28546763.420   150014245.162        3263.968          32.125    28546773.698   114946031.453        2501.110          35.375    28546776.871   112023686.434        2437.680          35.250    28546775.725   113484863.987        2469.372          38.313  
E04  27122990.706   142532242.108       -2454.726          38.250    27122994.068   109213011.629       -1880.718          42.438    27122995.853   106436414.191       -1833.077          42.813    27122995.445   107824713.958       -1856.896          45.625  
E05  24270075.911   127540150.903        2187.686          46.688    24270077.811    97725592.769        1676.325          48.563    24270079.542    95241052.715        1633.692          48.500    24270079.100    96483324.781        1655.000          51.563  
E09  23626136.359   124156183.830        -630.337          47.375    23626136.858    95132668.175        -482.952          49.375    23626138.321    92714044.889        -470.722          49.313    23626138.041    93923358.574        -476.833          52.375  
E11  26997500.821   141872728.759       -2883.527          30.313    26997506.942   108707650.236       -2208.969          33.563    26997509.300   105943899.002       -2152.975          34.375    26997508.478   107325776.658       -2180.961          36.938  
E15  27544905.683   144749452.461        3189.606          37.625    27544910.637   110911942.322        2444.015          40.125    27544912.704   108092152.927        2381.790          40.563    27544912.179   109502049.666        2412.904          43.375  
E21  28615056.289   150373148.234          55.085          35.500    28615060.654   115220998.708          42.227          38.188    28615063.303   112291660.113          41.218          39.688    28615062.596   113756331.955          41.742          42.000  
E34  23866645.773   125420081.766        1313.055          48.063    23866647.266    96101114.010        1006.164          48.625    23866648.523    93657871.505         980.520          48.875    23866648.355    94879495.801         993.342          51.750  
E36  24128776.921   126797564.606       -1615.879          46.375    24128779.508    97156576.836       -1238.128          48.500    24128781.060    94686498.622       -1206.752          49.375    24128780.635    95921539.275       -1222.442          52.000  
> 2023 09 10 11 31 34.0000000  0  9                     
E03  28546142.683   150010980.834        3264.868          32.375    28546152.545   114943530.273        2501.373          35.125    28546155.575   112021248.849        2437.905          35.438    28546154.586   113482394.603        2469.638          38.313  
E04  27123457.763   142534696.592       -2454.310          38.313    27123461.273   109214892.343       -1880.631          42.438    27123462.919   106438247.089       -1832.758          42.688    27123462.506   107826570.764       -1856.704          45.625  
E05  24269659.670   127537963.256        2187.694          46.625    24269661.508    97723916.526        1676.295          48.563    24269663.291    95239419.088        1633.691          48.438    24269662.805    96481669.846        1654.995          51.500  
E09  23626256.317   124156814.181        -630.225          47.438    23626256.814    95133151.169        -482.904          49.438    23626258.272    92714515.602        -470.640          49.250    23626257.992    93923835.427        -476.772          52.313  
E11  26998049.620   141875611.742       -2882.773          30.125    26998055.515   108709859.290       -2208.970          33.750    26998057.991   105946051.918       -2152.993          34.188    26998057.127   107327957.647       -2180.988          36.875  
E15  27544298.582   144746262.705        3189.705          37.875    27544303.622   110909498.224        2444.135          40.188    27544305.704   108089770.957        2382.096          40.313    27544305.188   109499636.633        2413.116          43.250  
E21  28615045.789   150373093.254          54.846          35.500    28615050.309   115220956.585          42.042          38.438    28615052.789   112291619.072          41.007          39.438    28615052.142   113756290.374          41.513          42.000  
E34  23866395.896   125418768.791        1312.998          48.000    23866397.426    96100107.968        1006.101          48.688    23866398.679    93656891.039         980.440          48.750    23866398.498    94878502.547         993.269          51.688  
E36  24129084.490   126799180.639       -1615.986          46.313    24129087.015    97157815.087       -1238.170          48.500    24129088.582    94687705.389       -1206.755          49.313    24129088.153    95922761.784       -1222.466          51.938  
> 2023 09 10 11 31 35.0000000  0  9                     
E03  28545520.915   150007716.063        3265.185          32.375    28545531.326   114941028.670        2501.977          35.313    28545534.383   112018810.836        2438.393          35.250    28545533.289   113479924.796        2470.168          38.313  
E04  27123924.714   142537150.575       -2453.589          38.000    27123928.242   109216772.669       -1880.124          42.250    27123929.863   106440079.612       -1832.294          42.625    27123929.491   107828427.187       -1856.207          45.500  
E05  24269243.311   127535775.333        2188.116          46.625    24269245.162    97722240.065        1676.655          48.438    24269246.941    95237785.249        1633.984          48.438    24269246.465    96480014.697        1655.317          51.438  
E09  23626376.221   124157444.310        -629.871          47.375    23626376.716    95133633.991        -482.660          49.313    23626378.180    92714986.153        -470.422          49.250    23626377.898    93924312.114        -476.543          52.313  
E11  26998598.344   141878494.333       -2882.582          29.563    26998603.997   108712067.959       -2208.416          33.563    26998606.283   105948204.419       -2152.280          34.063    26998605.613   107330138.230       -2180.318          36.813  
E15  27543691.469   144743072.471        3190.642          37.750    27543696.619   110907053.764        2444.697          40.250    27543698.658   108087388.651        2382.543          40.375    27543698.116   109497223.252        2413.612          43.313  
E21  28615035.347   150373038.164          55.289          35.688    28615039.863   115220914.381          42.260          38.375    28615042.223   112291577.945          41.188          39.563    28615041.656   113756248.706          41.725          42.000  
E34  23866146.047   125417455.649        1313.357          47.875    23866147.498    96099101.792        1006.347          48.625    23866148.838    93655910.439         980.737          48.813    23866148.611    94877509.159         993.545          51.750  
E36  24129392.006   126800796.453       -1615.595          46.250    24129394.509    97159053.182       -1237.942          48.438    24129396.058    94688912.003       -1206.493          49.313    24129395.635    95923984.140       -1222.219          51.938  
> 2023 09 10 11 31 36.0000000  0  9                     
E03  28544899.797   150004450.855        3265.159          32.500    28544910.122   114938526.774        2501.708          35.375    28544913.008   112016372.560        2438.182          35.250    28544911.967   113477454.707        2469.944          38.313  
E04  27124391.625   142539604.238       -2453.871          38.000    27124395.206   109218652.731       -1880.277          42.500    27124396.804   106441911.869       -1832.379          42.688    27124396.404   107830283.347       -1856.333          45.625  
E05  24268826.908   127533587.269        2187.835          46.625    24268828.789    97720563.505        1676.329          48.563    24268830.548    95236151.314        1633.711          48.438    24268830.094    96478359.449        1655.029          51.500  
E09  23626496.080   124158074.340        -630.380          47.375    23626496.622    95134116.741        -482.974          49.313    23626498.067    92715456.627        -470.706          49.313    23626497.783    93924788.726        -476.839          52.313  
E11  26999146.780   141881376.413       -2882.168          29.250    26999152.390   108714276.386       -2208.677          33.625    26999154.795   105950356.669       -2152.595          34.125    26999154.039   107332318.570       -2180.665          36.875  
E15  27543084.364   144739881.900        3190.359          37.688    27543089.516   110904609.051        2444.446          40.125    27543091.464   108085006.090        2382.418          40.438    27543090.963   109494809.613        2413.428          43.313  
E21  28615025.048   150372983.120          54.682          35.375    28615029.381   115220872.197          41.956          38.375    28615031.696   112291536.843          40.886          39.563    28615031.179   113756207.065          41.426          42.000  
E34  23865896.094   125416142.464        1312.846          47.813    23865897.572    96098095.587        1005.921          48.625    23865898.946    93654929.819         980.373          48.875    23865898.723    94876515.747         993.144          51.750  
E36  24129699.430   126802412.197       -1616.055          46.375    24129701.988    97160291.217       -1238.292          48.438    24129703.550    94690118.566       -1206.860          49.375    24129703.104    95925206.438       -1222.578          52.000  
> 2023 09 10 11 31 37.0000000  0  9                     
E03  28544278.395   150001186.193        3264.500          32.563    28544289.070   114936025.276        2501.542          35.313    28544291.854   112013934.658        2437.594          35.250    28544290.684   113474985.007        2469.569          38.313  
E04  27124858.729   142542058.402       -2454.340          38.063    27124862.218   109220533.202       -1880.582          42.313    27124863.792   106443744.528       -1832.766          42.688    27124863.425   107832139.911       -1856.662          45.563  
E05  24268410.739   127531399.982        2187.031          46.563    24268412.562    97718887.526        1675.805          48.500    24268414.314    95234517.944        1633.184          48.438    24268413.867    96476704.774        1654.496          51.500  
E09  23626616.152   124158705.169        -631.071          47.250    23626616.700    95134600.105        -483.529          49.313    23626618.110    92715927.702        -471.263          49.313    23626617.828    93925265.945        -477.394          52.375  
E11  26999694.883   141884259.118       -2882.818          29.438    26999701.005   108716485.174       -2208.936          33.188    26999703.336   105952509.322       -2152.888          34.313    26999702.609   107334499.287       -2180.859          36.750  
E15  27542477.326   144736691.875        3190.017          37.625    27542482.438   110902164.751        2444.213          40.188    27542484.384   108082623.932        2381.945          40.688    27542483.932   109492396.384        2413.089          43.375  
E21  28615014.876   150372929.040          53.659          35.375    28615019.146   115220830.754          41.298          38.438    28615021.355   112291496.456          40.153          39.625    28615020.876   113756166.147          40.755          42.063  
E34  23865646.333   125414830.129        1312.089          47.813    23865647.843    96097090.033        1005.351          48.563    23865649.211    93653949.829         979.773          48.813    23865648.992    94875522.974         992.560          51.750  
E36  24130007.112   126804028.762       -1616.860          46.250    24130009.630    97161529.882       -1238.883          48.438    24130011.139    94691325.736       -1207.389          49.375    24130010.729    95926429.356       -1223.132          52.000  
> 2023 09 10 11 31 38.0000000  0  9                     
E03  28543657.366   149997921.940        3264.175          32.438    28543667.920   114933524.083        2501.029          35.250    28543670.728   112011497.060        2437.601          35.313    28543669.513   113472515.612        2469.306          38.375  
E04  27125325.732   142544513.041       -2454.645          37.625    27125329.323   109222414.021       -1880.853          42.250    27125330.833   106445577.534       -1833.062          42.563    27125330.535   107833996.824       -1856.965          45.438  
E05  24267994.605   127529213.359        2186.388          46.500    24267996.459    97717212.061        1675.291          48.563    24267998.210    95232885.081        1632.678          48.500    24267997.769    96475050.611        1653.983          51.563  
E09  23626736.318   124159336.712        -631.795          47.188    23626736.884    95135084.012        -484.049          49.313    23626738.289    92716399.306        -471.726          49.250    23626738.012    93925743.701        -477.881          52.313  
E11  27000243.371   141887142.231       -2882.775          29.188    27000249.402   108718694.311       -2209.352          33.438    27000252.025   105954662.266       -2152.998          33.938    27000251.241   107336680.334       -2181.217          36.625  
E15  27541870.316   144733502.344        3189.402          37.563    27541875.440   110899720.798        2443.995          40.313    27541877.434   108080242.123        2381.751          40.500    27541876.985   109489983.502        2412.876          43.375  
E21  28615004.733   150372875.789          52.929          35.188    28615008.998   115220789.965          40.472          38.563    28615011.179   112291456.696          39.487          39.563    28615010.739   113756125.875          39.980          42.125  
E34  23865396.754   125413518.565        1311.371          47.750    23865398.258    96096085.074        1004.751          48.625    23865399.608    93652970.418         979.222          48.875    23865399.413    94874530.789         991.995          51.813  
E36  24130314.890   126805646.055       -1617.536          46.250    24130317.404    97162769.103       -1239.318          48.500    24130318.913    94692533.453       -1207.845          49.313    24130318.498    95927652.825       -1223.584          52.000  
> 2023 09 10 11 31 39.0000000  0  9                     
E03  28543036.212   149994657.655        3263.791          32.563    28543046.574   114931022.891        2501.057          35.125    28543049.400   112009059.459        2437.396          35.500    28543048.350   113470046.216        2469.202          38.375  
E04  27125792.845   142546967.690       -2455.061          37.875    27125796.363   109224294.857       -1881.087          42.438    27125797.970   106447410.555       -1833.271          42.625    27125797.659   107835853.752       -1857.178          45.563  
E05  24267578.563   127527026.980        2185.972          46.563    24267580.412    97715536.793        1674.973          48.625    24267582.143    95231252.397        1632.394          48.625    24267581.716    96473396.634        1653.685          51.688  
E09  23626856.538   124159968.549        -632.308          47.188    23626857.096    95135568.152        -484.466          49.438    23626858.528    92716871.137        -472.193          49.375    23626858.249    93926221.686        -478.327          52.438  
E11  27000792.210   141890025.428       -2883.741          29.188    27000798.165   108720903.479       -2209.514          33.625    27000800.802   105956815.278       -2153.417          34.063    27000799.896   107338861.420       -2181.477          36.813  
E15  27541263.525   144730312.829        3189.214          37.688    27541268.501   110897276.905        2443.666          40.188    27541270.514   108077860.356        2381.593          40.625    27541270.029   109487570.671        2412.635          43.375  
E21  28614994.657   150372822.959          52.277          35.250    28614998.936   115220749.490          40.096          38.750    28615001.196   112291417.250          39.057          39.875    28615000.696   113756085.914          39.580          42.313  
E34  23865147.259   125412207.356        1310.787          47.750    23865148.714    96095080.376        1004.355          48.688    23865150.100    93651991.264         978.812          48.875    23865149.901    94873538.863         991.577          51.813  
E36  24130622.742   126807263.665       -1618.116          46.250    24130625.223    97164008.576       -1239.814          48.563    24130626.718    94693741.409       -1208.272          49.438    24130626.319    95928876.539       -1224.040          52.063  
> 2023 09 10 11 31 40.0000000  0  9                     
E03  28542414.965   149991393.361        3263.889          32.000    28542425.221   114928521.673        2501.036          35.438    28542428.191   112006621.830        2437.468          35.188    28542427.157   113467576.792        2469.220          38.375  
E04  27126259.897   142549422.334       -2454.776          37.438    27126263.501   109226175.687       -1880.947          42.375    27126265.048   106449243.564       -1833.234          42.625    27126264.764   107837710.673       -1857.092          45.500  
E05  24267162.601   127524840.816        2185.852          46.500    24267164.426    97713861.683        1674.851          48.625    24267166.115    95229619.879        1632.247          48.563    24267165.699    96471742.820        1653.543          51.625  
E09  23626976.780   124160600.634        -632.486          47.125    23626977.386    95136052.478        -484.596          49.438    23626978.812    92717343.145        -472.238          49.313    23626978.536    93926699.853        -478.419          52.375  
E11  27001340.813   141892908.488       -2882.822          29.063    27001346.861   108723112.633       -2209.480          33.625    27001349.492   105958968.259       -2153.056          34.125    27001348.564   107341042.489       -2181.295          36.875  
E15  27540656.577   144727123.334        3189.201          37.500    27540661.540   110894833.010        2443.699          40.250    27540663.598   108075478.589        2381.564          40.500    27540663.073   109485157.840        2412.627          43.375  
E21  28614984.525   150372770.521          52.001          34.875    28614989.077   115220709.300          39.813          38.625    28614991.193   112291378.083          38.924          39.688    28614990.701   113756046.237          39.364          42.188  
E34  23864897.795   125410896.445        1310.515          47.688    23864899.294    96094075.913        1004.185          48.688    23864900.681    93651012.340         978.651          48.813    23864900.433    94872547.170         991.415          51.813  
E36  24130930.649   126808881.546       -1618.217          46.188    24130933.079    97165248.246       -1239.925          48.563    24130934.604    94694949.569       -1208.448          49.438    24130934.191    95930100.454       -1224.180          52.063  
> 2023 09 10 11 31 41.0000000  0  9                     
E03  28541793.975   149988129.175        3264.131          32.125    28541804.028   114926020.580        2501.014          35.313    28541806.977   112004184.299        2437.624          35.125    28541806.009   113465107.477        2469.336          38.313  
E04  27126727.209   142551877.170       -2454.895          37.625    27126730.604   109228056.658       -1881.069          42.438    27126732.186   106451076.711       -1833.120          42.500    27126731.897   107839567.729       -1857.081          45.500  
E05  24266746.656   127522655.062        2185.670          46.500    24266748.502    97712186.886        1674.678          48.688    24266750.179    95227987.661        1632.097          48.625    24266749.766    96470089.313        1653.392          51.688  
E09  23627097.144   124161233.164        -632.702          47.125    23627097.748    95136537.139        -484.785          49.438    23627099.156    92717815.494        -472.493          49.313    23627098.903    93927178.358        -478.629          52.375  
E11  27001889.473   141895791.813       -2882.846          28.875    27001895.766   108725321.916       -2209.505          33.188    27001898.365   105961121.391       -2153.435          34.000    27001897.218   107343223.693       -2181.450          36.563  
E15  27540049.670   144723934.025        3189.166          37.563    27540054.626   110892389.255        2443.806          40.188    27540056.680   108073096.976        2381.556          40.625    27540056.185   109482745.154        2412.686          43.375  
E21  28614974.501   150372718.662          51.425          34.938    28614979.251   115220669.576          39.438          38.813    28614981.326   112291339.357          38.542          39.750    28614980.824   113756007.011          38.980          42.313  
E34  23864648.443   125409586.043        1310.206          47.625    23864649.944    96093071.837        1003.908          48.750    23864651.306    93650033.788         978.383          48.875    23864651.060    94871555.856         991.151          51.875  
E36  24131238.656   126810499.890       -1618.586          46.125    24131241.019    97166488.275       -1240.168          48.625    24131242.562    94696158.070       -1208.663          49.375    24131242.147    95931324.719       -1224.411          52.063  
> 2023 09 10 11 31 42.0000000  0  9                     
E03  28541172.641   149984864.946        3264.258          32.313    28541182.793   114923519.403        2500.990          34.813    28541185.836   112001746.734        2437.523          35.063    28541184.834   113462638.110        2469.271          38.000  
E04  27127194.247   142554331.962       -2454.840          37.500    27127197.753   109229937.608       -1881.097          42.438    27127199.271   106452909.836       -1833.311          42.625    27127199.039   107841424.768       -1857.195          45.563  
E05  24266330.746   127520469.484        2185.425          46.438    24266332.591    97710512.220        1674.526          48.625    24266334.320    95226355.572        1631.998          48.563    24266333.870    96468435.936        1653.254          51.625  
E09  23627217.580   124161865.910        -632.983          47.063    23627218.144    95137021.971        -485.036          49.375    23627219.598    92718287.994        -472.657          49.375    23627219.315    93927657.025        -478.844          52.375  
E11  27002438.558   141898675.135       -2883.367          28.875    27002444.429   108727531.140       -2209.196          33.500    27002446.981   105963274.448       -2153.036          34.063    27002445.860   107345404.835       -2181.050          36.750  
E15  27539442.771   144720744.699        3189.244          37.813    27539447.634   110889945.487        2443.792          40.188    27539449.759   108070715.330        2381.565          40.625    27539449.278   109480332.448        2412.663          43.375  
E21  28614964.543   150372667.147          51.213          34.938    28614969.383   115220630.104          39.308          38.625    28614971.540   112291300.887          38.346          39.750    28614971.022   113755968.040          38.836          42.188  
E34  23864399.174   125408275.910        1309.912          47.625    23864400.652    96092067.965        1003.678          48.688    23864401.997    93649055.441         978.140          48.938    23864401.754    94870564.746         990.905          51.875  
E36  24131546.704   126812118.473       -1618.816          46.125    24131549.025    97167728.486       -1240.351          48.563    24131550.563    94697366.748       -1208.810          49.500    24131550.152    95932549.163       -1224.579          52.063  
> 2023 09 10 11 31 43.0000000  0  9                     
E03  28540551.315   149981600.677        3263.793          32.250    28540561.483   114921018.191        2500.872          35.000    28540564.717   111999309.114        2437.285          34.875    28540563.635   113460168.694        2469.054          38.000  
E04  27127661.380   142556786.733       -2455.310          37.563    27127664.886   109231818.528       -1881.355          42.375    27127666.394   106454742.935       -1833.501          42.563    27127666.185   107843281.777       -1857.422          45.500  
E05  24265914.888   127518284.110        2184.690          46.563    24265916.706    97708837.714        1674.020          48.625    24265918.480    95224723.643        1631.411          48.625    24265918.009    96466782.718        1652.714          51.625  
E09  23627338.049   124162498.898        -633.655          47.125    23627338.593    95137506.988        -485.531          49.375    23627340.070    92718760.682        -473.209          49.313    23627339.767    93928135.877        -479.365          52.375  
E11  27002986.878   141901558.325       -2883.500          29.063    27002993.055   108729740.373       -2209.729          33.313    27002995.656   105965427.505       -2153.424          33.438    27002994.559   107347585.983       -2181.574          36.438  
E15  27538835.729   144717555.361        3188.853          37.563    27538840.735   110887501.715        2443.362          40.250    27538842.919   108068333.689        2381.351          40.500    27538842.381   109477919.743        2412.339          43.375  
E21  28614954.579   150372616.025          50.167          35.188    28614959.797   115220590.929          38.473          38.688    28614961.933   112291262.713          37.615          39.813    28614961.310   113755929.366          38.024          42.313  
E34  23864149.910   125406966.069        1309.109          47.688    23864151.380    96091064.329        1003.101          48.688    23864152.758    93648077.323         977.576          48.938    23864152.496    94869573.869         990.335          51.875  
E36  24131854.742   126813737.320       -1619.555          46.250    24131857.071    97168968.905       -1240.988          48.563    24131858.650    94698575.627       -1209.362          49.500    24131858.216    95933773.813       -1225.173          52.063  
> 2023 09 10 11 31 44.0000000  0  9                     
E03  28539930.513   149978336.331        3263.937          32.688    28539940.264   114918516.943        2500.993          35.063    28539943.691   111996871.471        2437.240          34.875    28539942.469   113457699.250        2469.129          38.000  
E04  27128128.495   142559241.463       -2455.147          37.688    27128131.990   109233699.423       -1881.166          42.375    27128133.514   106456576.015       -1833.412          42.625    27128133.312   107845138.765       -1857.290          45.500  
E05  24265499.027   127516098.926        2184.699          46.563    24265500.901    97707163.357        1673.979          48.625    24265502.650    95223091.850        1631.405          48.625    24265502.179    96465129.643        1652.692          51.625  
E09  23627458.535   124163132.120        -633.717          47.188    23627459.126    95137992.183        -485.556          49.375    23627460.595    92719233.543        -473.194          49.313    23627460.259    93928614.905        -479.377          52.375  
E11  27003535.648   141904441.532       -2883.463          28.813    27003541.971   108731949.541       -2209.508          33.438    27003544.335   105967580.515       -2153.289          34.000    27003543.210   107349767.072       -2181.343          36.688  
E15  27538228.796   144714366.015        3189.001          37.750    27538233.823   110885057.928        2443.511          40.188    27538236.023   108065952.025        2381.471          40.500    27538235.456   109475507.017        2412.487          43.375  
E21  28614944.876   150372565.238          50.042          34.563    28614950.139   115220552.020          38.434          38.813    28614952.322   112291224.800          37.454          40.063    28614951.647   113755890.951          37.952          42.438  
E34  23863900.710   125405656.522        1309.064          47.750    23863902.179    96090060.906        1003.033          48.688    23863903.532    93647099.412         977.536          48.875    23863903.302    94868583.202         990.283          51.813  
E36  24132162.870   126815356.416       -1619.557          46.313    24132165.181    97170209.508       -1240.992          48.563    24132166.763    94699784.691       -1209.418          49.500    24132166.328    95934998.646       -1225.206          52.125  
> 2023 09 10 11 31 45.0000000  0  9                     
E03  28539309.618   149975072.091        3264.718          32.563    28539319.161   114916015.778        2501.543          34.750    28539322.693   111994433.890        2438.110          34.875    28539321.298   113455229.876        2469.816          37.875  
E04  27128595.612   142561696.351       -2454.316          37.563    27128599.168   109235580.434       -1880.671          42.438    27128600.637   106458409.206       -1832.760          42.625    27128600.445   107846995.865       -1856.703          45.500  
E05  24265083.238   127513914.109        2185.256          46.688    24265085.116    97705489.275        1674.433          48.688    24265086.881    95221460.332        1631.873          48.625    24265086.425    96463476.844        1653.156          51.688  
E09  23627579.132   124163765.756        -633.212          47.188    23627579.725    95138477.694        -485.205          49.375    23627581.199    92719706.706        -472.828          49.375    23627580.836    93929094.242        -479.018          52.375  
E11  27004084.362   141907324.842       -2882.604          29.125    27004090.688   108734158.825       -2208.955          33.688    27004092.961   105969733.623       -2152.794          33.563    27004091.891   107351948.270       -2180.829          36.625  
E15  27537622.001   144711176.833        3189.641          38.063    27537627.065   110882614.277        2443.921          40.188    27537629.137   108063570.498        2381.861          40.563    27537628.576   109473094.426        2412.922          43.375  
E21  28614935.260   150372515.001          50.588          34.875    28614940.531   115220513.539          38.651          39.063    28614942.745   112291187.293          37.914          40.125    28614942.077   113755852.960          38.285          42.563  
E34  23863651.682   125404347.439        1309.508          47.688    23863653.043    96089057.845        1003.327          48.750    23863654.393    93646121.850         977.845          48.875    23863654.188    94867592.891         990.586          51.813  
E36  24132471.018   126816975.944       -1619.099          46.313    24132473.365    97171450.439       -1240.612          48.625    24132474.989    94700994.075       -1209.082          49.438    24132474.517    95936223.804       -1224.841          52.063  
> 2023 09 10 11 31 46.0000000  0  9                     
E03  28538688.416   149971808.165        3263.702          32.438    28538698.008   114913514.870        2500.862          34.938    28538701.658   111991996.579        2436.925          35.063    28538700.207   113452760.767        2468.894          38.000  
E04  27129062.737   142564151.614       -2455.760          37.625    27129066.340   109237461.733       -1881.569          42.313    27129067.898   106460242.663       -1833.727          42.625    27129067.663   107848853.245       -1857.660          45.438  
E05  24264667.512   127511729.884        2183.760          46.625    24264669.464    97703815.657        1673.224          48.750    24264671.219    95219829.259        1630.729          48.688    24264670.779    96461824.499        1651.973          51.750  
E09  23627699.844   124164400.018        -634.852          47.125    23627700.419    95138963.690        -486.421          49.438    23627701.894    92720180.347        -474.074          49.375    23627701.530    93929574.061        -480.248          52.438  
E11  27004632.980   141910208.521       -2884.059          28.875    27004639.403   108736368.405       -2209.844          33.313    27004641.671   105971887.020       -2153.580          33.688    27004640.640   107354129.760       -2181.704          36.500  
E15  27537015.391   144707988.021        3188.564          37.750    27537020.238   110880170.918        2443.003          40.375    27537022.249   108061189.251        2380.993          40.625    27537021.755   109470682.125        2412.007          43.500  
E21  28614925.667   150372465.535          48.827          34.563    28614931.085   115220475.630          37.418          39.125    28614933.429   112291150.353          36.537          40.063    28614932.656   113755815.536          36.962          42.563  
E34  23863402.652   125403039.039        1307.866          47.688    23863404.043    96088055.315        1002.077          48.750    23863405.410    93645144.806         976.637          48.938    23863405.208    94866603.102         989.363          51.938  
E36  24132779.242   126818596.127       -1620.743          46.375    24132781.647    97172691.882       -1241.896          48.688    24132783.301    94702203.949       -1210.241          49.500    24132782.822    95937449.463       -1226.074          52.125  
> 2023 09 10 11 31 47.0000000  0  9                     
E03  28538067.460   149968544.668        3263.557          32.125    28538077.087   114911014.268        2500.374          35.438    28538080.421   111989559.540        2436.757          34.625    28538079.184   113450291.947        2468.537          38.063  
E04  27129530.178   142566607.272       -2455.812          37.500    27129533.653   109239343.342       -1881.843          42.375    27129535.270   106462076.440       -1833.919          42.688    27129534.965   107850710.938       -1857.900          45.500  
E05  24264251.955   127509546.300        2183.192          46.563    24264253.942    97702142.522        1672.843          48.688    24264255.696    95218198.664        1630.319          48.688    24264255.258    96460172.633        1651.581          51.750  
E09  23627820.630   124165034.960        -635.349          47.063    23627821.255    95139450.201        -486.782          49.438    23627822.700    92720654.489        -474.392          49.438    23627822.358    93930054.388        -480.590          52.438  
E11  27005181.783   141913092.623       -2884.241          28.625    27005188.061   108738578.280       -2210.205          33.438    27005190.615   105974040.741       -2154.094          33.813    27005189.478   107356311.552       -2182.122          36.563  
E15  27536408.488   144704799.657        3188.217          38.000    27536413.497   110877727.887        2442.735          40.375    27536415.543   108058808.316        2380.951          40.625    27536415.018   109468270.142        2411.852          43.500  
E21  28614916.567   150372416.890          48.000          35.125    28614921.873   115220438.346          37.021          39.125    28614924.127   112291114.019          36.085          40.250    28614923.377   113755778.726          36.558          42.625  
E34  23863153.814   125401731.377        1307.312          47.625    23863155.170    96087053.333        1001.722          48.750    23863156.552    93644168.301         976.223          48.938    23863156.366    94865613.860         988.975          51.875  
E36  24133087.624   126820216.994       -1621.180          46.313    24133090.144    97173933.846       -1242.282          48.625    24133091.746    94703414.340       -1210.634          49.563    24133091.270    95938675.640       -1226.453          52.125  
> 2023 09 10 11 31 48.0000000  0  9                     
E03  28537446.300   149965280.977        3264.772          31.938    28537456.108   114908513.529        2501.400          35.000    28537459.385   111987122.353        2437.854          34.938    28537458.107   113447822.982        2469.621          38.000  
E04  27129997.557   142569062.787       -2454.535          37.750    27130000.876   109241224.840       -1880.799          42.313    27130002.568   106463910.102       -1832.931          42.563    27130002.245   107852568.518       -1856.877          45.438  
E05  24263836.434   127507362.794        2184.370          46.625    24263838.433    97700469.444        1673.763          48.625    24263840.178    95216568.115        1631.290          48.688    24263839.746    96458520.820        1652.521          51.688  
E09  23627941.455   124165670.009        -634.207          47.000    23627942.149    95139936.799        -485.917          49.438    23627943.551    92721128.719        -473.606          49.500    23627943.212    93930534.801        -479.759          52.500  
E11  27005730.540   141915976.545       -2882.766          28.688    27005736.997   108740788.019       -2208.871          33.438    27005739.238   105976194.323       -2153.147          33.750    27005738.257   107358493.213       -2181.000          36.563  
E15  27535801.660   144701611.161        3189.426          37.750    27535806.716   110875284.738        2443.940          40.375    27535808.714   108056427.305        2381.817          40.688    27535808.277   109465858.061        2412.892          43.563  
E21  28614907.293   150372368.456          49.265          34.813    28614912.786   115220401.262          37.694          39.125    28614914.945   112291077.867          36.841          40.063    28614914.147   113755742.108          37.269          42.563  
E34  23862905.029   125400423.885        1308.298          47.563    23862906.345    96086051.487        1002.504          48.688    23862907.747    93643191.922         977.009          48.938    23862907.565    94864624.748         989.752          51.875  
E36  24133396.078   126821838.003       -1620.159          46.313    24133398.602    97175175.912       -1241.502          48.625    24133400.200    94704624.828       -1209.841          49.500    24133399.745    95939901.917       -1225.667          52.125  
> 2023 09 10 11 31 49.0000000  0  9                     
E03  28536825.120   149962016.747        3264.562          31.813    28536834.837   114906012.364        2501.292          34.813    28536838.155   111984684.777        2438.103          34.563    28536836.896   113445353.613        2469.641          37.750  
E04  27130464.758   142571517.803       -2454.579          37.688    27130468.040   109243105.951       -1880.881          42.313    27130469.739   106465743.386       -1833.069          42.438    27130469.413   107854425.715       -1856.967          45.375  
E05  24263420.912   127505178.994        2184.066          46.688    24263422.866    97698796.150        1673.469          48.750    24263424.615    95214937.369        1630.927          48.688    24263424.185    96456868.800        1652.203          51.750  
E09  23628062.194   124166304.821        -634.628          47.188    23628062.964    95140423.215        -486.265          49.438    23628064.354    92721602.764        -473.897          49.375    23628064.013    93931015.033        -480.080          52.438  
E11  27006279.098   141918859.989       -2882.974          28.750    27006285.667   108742997.423       -2209.164          33.438    27006287.992   105978347.492       -2152.662          33.938    27006286.957   107360674.499       -2180.907          36.688  
E15  27535194.670   144698422.172        3189.291          38.063    27535200.021   110872841.234        2443.766          40.438    27535201.889   108054045.921        2381.713          40.688    27535201.443   109463445.617        2412.752          43.563  
E21  28614898.094   150372319.941          48.615          35.063    28614903.597   115220364.072          37.444          39.063    28614905.659   112291041.640          36.293          39.938    28614904.909   113755705.400          36.873          42.563  
E34  23862656.125   125399116.210        1307.870          47.688    23862657.506    96085049.501        1002.088          48.750    23862658.920    93642215.417         976.600          48.938    23862658.715    94863635.501         989.350          51.938  
E36  24133704.456   126823458.792       -1620.587          46.313    24133707.067    97176417.811       -1241.745          48.625    24133708.645    94705835.157       -1210.190          49.500    24133708.166    95941128.031       -1225.960          52.125  
> 2023 09 10 11 31 50.0000000  0  9                     
E03  28536203.896   149958752.317        3264.362          31.938    28536213.525   114903511.054        2501.008          34.750    28536216.876   111982247.083        2437.654          34.688    28536215.702   113442884.105        2469.372          37.750  
E04  27130931.984   142573972.652       -2454.907          37.500    27130935.149   109244986.931       -1881.126          42.250    27130936.891   106467576.549       -1833.318          42.625    27130936.573   107856282.786       -1857.227          45.500  
E05  24263005.370   127502995.264        2183.410          46.750    24263007.302    97697122.903        1673.032          48.750    24263009.080    95213306.664        1630.422          48.750    24263008.633    96455216.824        1651.724          51.813  
E09  23628183.019   124166939.732        -635.245          47.125    23628183.790    95140909.701        -486.726          49.438    23628185.182    92722076.882        -474.348          49.375    23628184.823    93931495.334        -480.536          52.438  
E11  27006827.779   141921743.217       -2883.188          29.000    27006834.571   108745206.650       -2209.486          33.438    27006836.621   105980500.568       -2153.276          33.500    27006835.661   107362855.653       -2181.385          36.500  
E15  27534587.877   144695233.034        3188.866          37.875    27534593.151   110870397.609        2443.448          40.438    27534595.038   108051664.428        2381.345          40.625    27534594.563   109461033.058        2412.403          43.563  
E21  28614889.025   150372271.667          47.878          35.063    28614894.472   115220327.091          36.630          39.188    28614896.400   112291005.583          35.845          40.250    28614895.711   113755668.881          36.245          42.750  
E34  23862407.268   125397808.681        1307.176          47.750    23862408.697    96084047.635        1001.564          48.813    23862410.098    93641239.015         976.148          48.875    23862409.901    94862646.368         988.857          51.938  
E36  24134012.940   126825079.691       -1621.232          46.438    24134015.511    97177659.803       -1242.241          48.688    24134017.073    94707045.568       -1210.628          49.438    24134016.610    95942354.232       -1226.442          52.125  
> 2023 09 10 11 31 51.0000000  0  9                     
E03  28535582.959   149955487.942        3263.989          32.000    28535592.263   114901009.761        2501.429          34.813    28535595.606   111979809.398        2437.600          34.938    28535594.469   113440414.621        2469.502          37.938  
E04  27131398.979   142576427.589       -2454.998          37.688    27131402.262   109246867.978       -1881.127          42.313    27131404.047   106469409.771       -1833.325          42.438    27131403.732   107858139.921       -1857.216          45.313  
E05  24262589.884   127500811.821        2183.298          46.813    24262591.820    97695449.871        1672.976          48.750    24262593.579    95211676.171        1630.377          48.688    24262593.138    96453565.062        1651.683          51.750  
E09  23628303.896   124167574.971        -635.352          47.188    23628304.672    95141396.442        -486.835          49.563    23628306.066    92722551.249        -474.480          49.313    23628305.705    93931975.889        -480.660          52.438  
E11  27007376.609   141924626.528       -2882.780          28.375    27007383.167   108747415.907       -2209.277          33.438    27007385.402   105982653.693       -2153.190          33.500    27007384.333   107365036.840       -2181.223          36.438  
E15  27533981.075   144692043.979        3189.127          37.875    27533986.343   110867954.047        2443.560          40.438    27533988.202   108049283.002        2381.373          40.500    27533987.710   109458620.566        2412.460          43.500  
E21  28614879.749   150372223.851          47.589          34.938    28614885.441   115220290.452          36.518          39.313    28614887.258   112290969.888          35.385          40.000    28614886.602   113755632.714          35.943          42.688  
E34  23862158.473   125396501.548        1306.941          47.750    23862159.946    96083046.061        1001.414          48.813    23862161.349    93640262.909         975.956          48.875    23862161.149    94861657.528         988.686          51.875  
E36  24134321.494   126826700.946       -1621.390          46.438    24134324.021    97178902.059       -1242.348          48.688    24134325.611    94708256.244       -1210.759          49.438    24134325.125    95943580.698       -1226.560          52.125  
> 2023 09 10 11 31 52.0000000  0  9                     
E03  28534961.922   149952223.597        3264.618          32.313    28534971.053   114898508.541        2501.104          34.938    28534974.524   111977371.744        2437.637          34.938    28534973.276   113437945.183        2469.389          38.000  
E04  27131866.166   142578882.605       -2455.104          37.500    27131869.462   109248749.085       -1881.041          42.313    27131871.244   106471243.060       -1833.262          42.563    27131870.914   107859997.119       -1857.147          45.500  
E05  24262174.499   127498628.693        2183.092          46.813    24262176.410    97693777.094        1672.721          48.750    24262178.130    95210045.918        1630.161          48.750    24262177.702    96451913.548        1651.432          51.813  
E09  23628424.878   124168210.575        -635.775          47.000    23628425.639    95141883.460        -487.114          49.438    23628427.011    92723025.886        -474.709          49.375    23628426.662    93932456.716        -480.914          52.438  
E11  27007925.195   141927509.934       -2883.646          29.250    27007931.766   108749625.262       -2209.313          33.125    27007934.086   105984806.855       -2153.304          33.750    27007933.024   107367218.104       -2181.311          36.438  
E15  27533374.444   144688855.057        3188.925          37.750    27533379.470   110865510.578        2443.532          40.438    27533381.401   108046901.655        2381.356          40.438    27533380.871   109456208.156        2412.441          43.438  
E21  28614870.715   150372176.505          47.376          34.813    28614876.465   115220254.178          36.213          39.188    28614878.278   112290934.542          35.134          40.063    28614877.601   113755596.904          35.667          42.625  
E34  23861909.837   125395194.832        1306.582          47.625    23861911.306    96082044.813        1001.175          48.750    23861912.710    93639287.114         975.670          48.875    23861912.495    94860669.006         988.420          51.875  
E36  24134630.093   126828322.592       -1621.846          46.438    24134632.572    97180144.618       -1242.719          48.625    24134634.204    94709467.211       -1211.076          49.500    24134633.720    95944807.462       -1226.897          52.125  
> 2023 09 10 11 31 53.0000000  0  9                     
E03  28534341.097   149948959.249        3264.350          32.188    28534349.780   114896007.263        2501.593          34.875    28534353.217   111974934.069        2438.061          35.000    28534352.069   113435475.707        2469.803          38.000  
E04  27132333.390   142581337.600       -2454.821          37.500    27132336.685   109250630.200       -1880.893          42.188    27132338.443   106473076.341       -1833.178          42.500    27132338.100   107861854.318       -1857.049          45.375  
E05  24261759.110   127496445.792        2182.961          46.750    24261761.010    97692104.479        1672.677          48.688    24261762.738    95208415.826        1630.153          48.750    24261762.311    96450262.193        1651.421          51.750  
E09  23628545.854   124168846.416        -635.748          47.063    23628546.655    95142370.673        -487.167          49.438    23628548.026    92723500.712        -474.793          49.313    23628547.664    93932937.735        -480.977          52.438  
E11  27008474.209   141930393.334       -2883.627          28.688    27008480.408   108751834.613       -2209.230          33.250    27008482.878   105986960.001       -2152.809          33.625    27008481.700   107369399.352       -2181.046          36.375  
E15  27532767.559   144685666.109        3189.191          38.000    27532772.582   110863067.120        2443.582          40.313    27532774.609   108044520.312        2381.472          40.500    27532774.049   109453795.756        2412.541          43.375  
E21  28614861.935   150372129.573          47.068          34.750    28614867.598   115220218.220          36.010          39.063    28614869.259   112290899.477          35.011          40.063    28614868.640   113755561.392          35.496          42.563  
E34  23861661.243   125393888.418        1306.460          47.688    23861662.700    96081043.799        1001.002          48.750    23861664.132    93638311.542         975.670          48.813    23861663.895    94859680.714         988.335          51.813  
E36  24134938.722   126829944.490       -1621.814          46.500    24134941.187    97181387.374       -1242.693          48.625    24134942.828    94710678.372       -1211.095          49.500    24134942.365    95946034.420       -1226.890          52.125  
> 2023 09 10 11 31 54.0000000  0  9                     
E03  28533719.630   149945694.939        3264.785          32.063    28533728.645   114893506.072        2501.419          35.125    28533732.035   111972496.472        2437.867          35.000    28533730.916   113433006.309        2469.675          38.063  
E04  27132800.509   142583792.726       -2454.859          37.625    27132803.931   109252511.387       -1880.991          42.313    27132805.630   106474909.693       -1833.063          42.563    27132805.304   107863711.587       -1857.035          45.375  
E05  24261343.752   127494263.206        2182.771          46.750    24261345.675    97690432.116        1672.502          48.688    24261347.417    95206785.982        1629.941          48.750    24261346.982    96448611.091        1651.223          51.750  
E09  23628666.939   124169482.645        -636.051          47.063    23628667.691    95142858.167        -487.379          49.375    23628669.115    92723975.813        -475.018          49.250    23628668.728    93933419.033        -481.199          52.313  
E11  27009022.827   141933276.792       -2883.433          29.188    27009029.123   108754044.008       -2209.548          32.938    27009031.609   105989113.250       -2152.973          33.750    27009030.391   107371580.671       -2181.236          36.375  
E15  27532160.765   144682477.310        3189.007          37.813    27532165.642   110860623.757        2443.508          40.375    27532167.787   108042139.067        2381.267          40.375    27532167.245   109451383.453        2412.406          43.375  
E21  28614853.270   150372083.126          46.474          34.875    28614858.667   115220182.624          35.652          39.063    28614860.313   112290864.809          34.696          39.938    28614859.795   113755526.260          35.185          42.500  
E34  23861412.711   125392582.432        1306.128          47.563    23861414.180    96080043.108        1000.783          48.750    23861415.585    93637336.302         975.325          48.813    23861415.376    94858692.748         988.054          51.813  
E36  24135247.457   126831566.797       -1622.190          46.375    24135249.900    97182630.433       -1243.007          48.625    24135251.569    94711889.826       -1211.377          49.500    24135251.077    95947261.676       -1227.189          52.125  
> 2023 09 10 11 31 55.0000000  0  9                     
E03  28533098.382   149942431.399        3263.255          32.375    28533107.778   114891005.439        2500.381          35.250    28533111.023   111970059.383        2436.966          35.125    28533109.906   113430537.454        2468.642          38.250  
E04  27133267.961   142586248.582       -2456.331          37.625    27133271.241   109254393.154       -1881.966          42.313    27133272.975   106476743.629       -1834.374          42.563    27133272.655   107865569.438       -1858.164          45.438  
E05  24260928.589   127492081.602        2181.200          46.688    24260930.523    97688760.489        1671.310          48.625    24260932.290    95205156.855        1628.801          48.688    24260931.832    96446960.714        1650.056          51.750  
E09  23628788.178   124170119.874        -637.733          47.125    23628788.929    95143346.438        -488.652          49.438    23628790.384    92724451.666        -476.223          49.313    23628789.990    93933901.095        -482.438          52.375  
E11  27009571.708   141936161.008       -2884.511          28.750    27009577.954   108756253.964       -2210.008          33.125    27009580.365   105991267.056       -2154.050          33.500    27009579.261   107373762.559       -2182.100          36.375  
E15  27531554.206   144679289.269        3187.660          37.875    27531558.936   110858180.971        2442.524          40.438    27531561.111   108039758.386        2380.489          40.500    27531560.580   109448971.721        2411.498          43.438  
E21  28614844.646   150372037.841          44.792          35.250    28614850.047   115220147.924          34.445          39.188    28614851.729   112290830.970          33.438          40.000    28614851.182   113755491.992          33.921          42.563  
E34  23861164.419   125391277.512        1304.453          47.563    23861165.838    96079043.236         999.523          48.813    23861167.249    93636361.845         974.100          48.813    23861167.049    94857705.584         986.805          51.875  
E36  24135556.331   126833190.121       -1623.847          46.438    24135558.821    97183874.276       -1244.112          48.625    24135560.496    94713102.050       -1212.605          49.438    24135559.990    95948489.710       -1228.362          52.125  
> 2023 09 10 11 31 56.0000000  0  9                     
E03  28532477.066   149939168.393        3263.712          32.313    28532486.847   114888505.185        2500.866          35.000    28532490.065   111967622.748        2437.306          34.938    28532488.990   113428069.005        2469.121          38.000  
E04  27133735.335   142588705.053       -2455.698          37.625    27133738.626   109256275.367       -1881.525          42.188    27133740.427   106478577.991       -1833.741          42.438    27133740.123   107867427.726       -1857.630          45.313  
E05  24260513.643   127489900.816        2181.496          46.500    24260515.526    97687089.504        1671.539          48.625    24260517.303    95203528.350        1629.011          48.688    24260516.839    96445310.969        1650.282          51.688  
E09  23628909.598   124170757.958        -637.290          47.063    23628910.350    95143835.355        -488.362          49.438    23628911.812    92724928.161        -476.034          49.250    23628911.417    93934383.801        -482.194          52.375  
E11  27010120.351   141939045.847       -2884.543          29.250    27010126.840   108758464.408       -2209.642          33.188    27010129.245   105993421.268       -2153.467          33.313    27010128.246   107375944.885       -2181.592          36.250  
E15  27530947.693   144676101.830        3188.323          37.875    27530952.362   110855738.657        2443.071          40.250    27530954.571   108037378.164        2380.849          40.625    27530954.054   109446560.452        2411.960          43.375  
E21  28614836.447   150371993.527          44.955          35.313    28614841.415   115220113.979          34.481          39.063    28614843.326   112290797.900          33.521          40.188    28614842.744   113755458.484          34.008          42.625  
E34  23860916.298   125389973.509        1304.662          47.500    23860917.698    96078044.066         999.656          48.750    23860919.102    93635388.077         974.283          48.750    23860918.905    94856719.115         986.968          51.813  
E36  24135865.401   126834814.328       -1623.524          46.500    24135867.926    97185118.800       -1243.989          48.625    24135869.581    94714314.933       -1212.369          49.438    24135869.069    95949718.413       -1228.174          52.063  
> 2023 09 10 11 31 57.0000000  0  9                     
E03  28531855.952   149935905.279        3262.700          32.313    28531866.025   114886004.901        2500.151          35.000    28531868.946   111965186.014        2436.579          34.688    28531867.998   113425600.496        2468.378          37.875  
E04  27134202.774   142591161.446       -2456.615          37.875    27134206.083   109258157.538       -1882.271          42.313    27134207.911   106480412.303       -1834.408          42.563    27134207.564   107869285.968       -1858.328          45.438  
E05  24260098.644   127487720.186        2180.316          46.625    24260100.576    97685418.634        1670.630          48.688    24260102.343    95201899.956        1628.205          48.813    24260101.876    96443661.337        1649.419          51.813  
E09  23629031.060   124171396.243        -638.523          47.125    23629031.803    95144324.435        -489.312          49.375    23629033.253    92725404.803        -476.871          49.313    23629032.879    93934866.662        -483.082          52.375  
E11  27010669.169   141941930.597       -2885.307          28.938    27010675.789   108760674.771       -2210.380          33.250    27010678.256   105995575.427       -2154.092          33.500    27010677.178   107378127.145       -2182.228          36.438  
E15  27530341.047   144672914.373        3187.296          38.000    27530345.773   110853296.305        2442.257          40.313    27530348.057   108034997.913        2380.196          40.688    27530347.487   109444149.150        2411.244          43.500  
E21  28614828.282   150371949.568          43.531          35.688    28614832.976   115220080.286          33.486          39.125    28614834.934   112290765.065          32.551          40.188    28614834.401   113755425.220          33.013          42.688  
E34  23860668.212   125388669.757        1303.404          47.688    23860669.590    96077045.088         998.766          48.750    23860670.995    93634414.497         973.387          48.813    23860670.806    94855732.836         986.069          51.875  
E36  24136174.527   126836438.744       -1624.680          46.500    24136177.024    97186363.487       -1244.992          48.625    24136178.701    94715527.967       -1213.246          49.500    24136178.183    95950947.274       -1229.114          52.125  
> 2023 09 10 11 31 58.0000000  0  9                     
E03  28531235.071   149932642.848        3262.398          33.000    28531245.178   114883505.129        2499.547          35.063    28531248.064   111962749.793        2436.061          34.688    28531247.193   113423132.501        2467.811          37.938  
E04  27134670.297   142593618.578       -2457.393          37.563    27134673.658   109260040.259       -1882.681          42.313    27134675.516   106482247.161       -1834.844          42.438    27134675.153   107871144.757       -1858.764          45.375  
E05  24259683.818   127485540.503        2179.491          46.750    24259685.789    97683748.493        1670.019          48.688    24259687.554    95200272.281        1627.502          48.750    24259687.098    96442012.428        1648.766          51.813  
E09  23629152.804   124172035.524        -639.446          47.250    23629153.427    95144814.272        -489.988          49.438    23629154.886    92725882.183        -477.513          49.375    23629154.530    93935350.271        -483.754          52.438  
E11  27011218.278   141944816.015       -2885.569          29.500    27011224.791   108762885.714       -2210.894          33.250    27011227.375   105997730.171       -2154.761          33.250    27011226.271   107380309.989       -2182.817          36.313  
E15  27529734.637   144669727.637        3186.726          38.250    27529739.331   110850854.530        2441.827          40.375    27529741.635   108032618.209        2379.619          40.750    27529741.068   109441738.412        2410.723          43.563  
E21  28614820.247   150371906.713          42.658          36.000    28614824.817   115220047.454          32.700          39.125    28614826.772   112290733.067          31.743          40.250    28614826.253   113755392.807          32.208          42.625  
E34  23860420.324   125387367.061        1302.439          47.813    23860421.695    96076046.918         997.976          48.813    23860423.111    93633441.706         972.607          48.875    23860422.908    94854747.355         985.288          51.938  
E36  24136483.785   126838064.176       -1625.585          46.688    24136486.337    97187608.949       -1245.646          48.625    24136488.021    94716741.768       -1213.938          49.438    24136487.507    95952176.905       -1229.796          52.125  
> 2023 09 10 11 31 59.0000000  0  9                     
E03  28530614.289   149929380.169        3262.521          33.000    28530624.240   114881005.129        2500.036          35.000    28530627.328   111960313.364        2436.300          34.938    28530626.304   113420664.290        2468.113          38.000  
E04  27135137.974   142596075.424       -2456.946          38.000    27135141.220   109261922.789       -1882.552          42.375    27135143.060   106484081.827       -1834.713          42.500    27135142.688   107873003.355       -1858.626          45.438  
E05  24259269.037   127483360.781        2179.625          46.813    24259271.003    97682078.324        1670.049          48.625    24259272.739    95198644.565        1627.681          48.875    24259272.310    96440363.486        1648.869          51.813  
E09  23629274.505   124172674.797        -639.400          47.250    23629275.059    95145304.105        -489.939          49.500    23629276.526    92726359.565        -477.478          49.500    23629276.190    93935833.879        -483.707          52.500  
E11  27011767.455   141947701.204       -2885.255          29.313    27011773.682   108765096.402       -2210.563          33.188    27011776.484   105999884.679       -2154.708          33.688    27011775.346   107382492.586       -2182.616          36.375  
E15  27529128.030   144666540.661        3186.995          38.250    27529132.945   110848412.568        2441.957          40.313    27529135.099   108030238.335        2379.877          40.688    27529134.587   109439327.494        2410.895          43.563  
E21  28614811.994   150371864.011          42.454          36.000    28614816.628   115220014.738          32.523          39.125    28614818.796   112290701.172          31.672          40.188    28614818.150   113755360.497          32.094          42.688  
E34  23860172.434   125386064.414        1302.488          47.875    23860173.829    96075048.788         998.014          48.813    23860175.235    93632468.953         972.639          48.875    23860175.028    94853761.913         985.328          51.875  
E36  24136793.140   126839689.630       -1625.597          46.625    24136795.635    97188854.420       -1245.535          48.563    24136797.343    94717955.581       -1213.910          49.563    24136796.827    95953406.548       -1229.728          52.125  
> 2023 09 10 11 32 00.0000000  0  9                     
E03  28529993.232   149926117.130        3263.365          33.688    28530003.271   114878504.908        2500.241          35.188    28530006.369   111957876.693        2436.726          34.875    28530005.361   113418195.844        2468.498          38.063  
E04  27135605.429   142598532.002       -2456.483          37.875    27135608.743   109263805.093       -1882.165          42.500    27135610.483   106485916.276       -1834.383          42.563    27135610.169   107874861.730       -1858.257          45.500  
E05  24258854.272   127481181.000        2179.708          46.750    24258856.200    97680408.096        1670.245          48.750    24258857.948    95197016.810        1627.755          48.875    24258857.513    96438714.496        1648.994          51.875  
E09  23629396.194   124173314.051        -639.310          47.188    23629396.706    95145793.916        -489.770          49.500    23629398.197    92726836.924        -477.348          49.438    23629397.836    93936317.464        -483.560          52.500  
E11  27012316.659   141950586.092       -2885.063          29.063    27012322.764   108767306.882       -2210.376          33.375    27012325.486   106002038.963       -2154.458          33.688    27012324.331   107384674.967       -2182.382          36.500  
E15  27528521.494   144663353.425        3187.196          38.250    27528526.448   110845970.382        2442.438          40.250    27528528.565   108027858.254        2380.115          40.625    27528528.087   109436916.359        2411.275          43.438  
E21  28614803.974   150371821.406          42.496          35.875    28614808.502   115219982.086          32.534          39.063    28614810.706   112290669.353          31.797          40.250    28614810.039   113755328.264          32.161          42.750  
E34  23859924.573   125384761.802        1302.533          47.875    23859925.992    96074050.684         998.040          48.813    23859927.369    93631496.222         972.687          48.938    23859927.153    94852776.496         985.364          51.938  
E36  24137102.549   126841315.080       -1625.441          46.688    24137104.980    97190099.896       -1245.542          48.688    24137106.639    94719169.388       -1213.859          49.625    24137106.143    95954636.189       -1229.697          52.188  
> 2023 09 10 11 32 01.0000000  0  9                     
E03  28529372.305   149922853.753        3263.542          33.500    28529382.157   114876004.394        2500.611          35.313    28529385.402   111955439.777        2436.810          35.063    28529384.346   113415727.125        2468.726          38.250  
E04  27136072.874   142600988.245       -2456.154          37.625    27136076.182   109265687.152       -1882.027          42.500    27136077.838   106487750.483       -1834.128          42.500    27136077.575   107876719.864       -1858.085          45.500  
E05  24258439.401   127479001.107        2180.003          46.813    24258441.359    97678737.794        1670.375          48.750    24258443.113    95195388.972        1627.891          48.875    24258442.685    96437065.425        1649.129          51.875  
E09  23629517.851   124173953.234        -639.168          47.250    23629518.353    95146283.685        -489.737          49.500    23629519.840    92727314.243        -477.303          49.438    23629519.468    93936801.008        -483.518          52.500  
E11  27012865.519   141953470.587       -2884.125          29.000    27012871.687   108769517.108       -2209.875          33.375    27012874.470   106004192.986       -2154.106          33.688    27012873.209   107386857.092       -2182.006          36.563  
E15  27527914.756   144660165.874        3187.589          38.500    27527919.832   110843527.989        2442.407          40.250    27527921.978   108025477.939        2380.508          40.688    27527921.489   109434505.008        2411.428          43.438  
E21  28614795.802   150371778.852          42.486          36.000    28614800.372   115219949.489          32.532          39.250    28614802.730   112290637.582          31.652          40.250    28614801.972   113755296.078          32.098          42.750  
E34  23859676.737   125383459.179        1302.656          47.938    23859678.125    96073052.569         998.110          48.813    23859679.493    93630523.489         972.677          48.875    23859679.264    94851791.072         985.393          51.938  
E36  24137411.874   126842940.491       -1625.448          46.750    24137414.299    97191345.332       -1245.444          48.688    24137415.947    94720383.158       -1213.739          49.563    24137415.445    95955865.793       -1229.594          52.188  
> 2023 09 10 11 32 02.0000000  0  9                     
E03  28528751.579   149919590.719        3262.766          33.563    28528761.305   114873504.164        2499.737          35.625    28528764.386   111953003.101        2436.216          35.313    28528763.412   113413258.677        2467.936          38.438  
E04  27136540.054   142603444.854       -2456.900          37.688    27136543.705   109267569.489       -1882.535          42.313    27136545.365   106489584.963       -1834.713          42.438    27136545.056   107878578.273       -1858.629          45.438  
E05  24258024.724   127476821.818        2178.815          46.813    24258026.689    97677067.947        1669.500          48.688    24258028.406    95193761.579        1627.064          48.875    24258027.978    96435416.806        1648.277          51.813  
E09  23629639.584   124174593.049        -640.313          47.250    23629640.128    95146773.932        -490.577          49.375    23629641.608    92727792.028        -478.150          49.313    23629641.212    93937285.024        -484.361          52.375  
E11  27013414.588   141956355.480       -2884.761          28.938    27013420.719   108771727.656       -2210.821          33.313    27013423.510   106006347.277       -2154.312          33.938    27013422.177   107389039.511       -2182.592          36.625  
E15  27527308.349   144656978.700        3186.756          38.313    27527313.388   110841085.870        2441.858          40.188    27527315.500   108023097.915        2379.776          40.625    27527314.990   109432093.934        2410.810          43.375  
E21  28614788.060   150371737.069          41.592          36.188    28614792.428   115219917.489          31.553          39.438    28614794.666   112290606.389          30.787          40.188    28614794.039   113755264.481          31.172          42.750  
E34  23859428.998   125382157.249        1301.423          47.875    23859430.406    96072054.984         997.240          48.813    23859431.738    93629551.270         971.824          48.875    23859431.523    94850806.170         984.533          51.875  
E36  24137721.326   126844566.544       -1626.554          46.688    24137723.749    97192591.271       -1246.271          48.563    24137725.380    94721597.424       -1214.649          49.500    24137724.881    95957095.895       -1230.459          52.125  
> 2023 09 10 11 32 03.0000000  0  9                     
E03  28528130.521   149916327.821        3262.873          33.938    28528140.409   114871003.984        2500.193          35.500    28528143.453   111950566.509        2436.417          35.125    28528142.519   113410790.288        2468.303          38.375  
E04  27137007.633   142605901.618       -2456.804          37.625    27137011.249   109269451.937       -1882.472          42.375    27137012.782   106491419.553       -1834.557          42.500    27137012.564   107880436.792       -1858.505          45.438  
E05  24257610.045   127474642.902        2178.845          46.875    24257612.098    97675398.389        1669.525          48.688    24257613.763    95192134.467        1627.057          48.938    24257613.342    96433768.471        1648.292          51.875  
E09  23629761.358   124175233.278        -640.281          47.313    23629761.971    95147264.497        -490.609          49.375    23629763.455    92728270.120        -478.148          49.375    23629763.037    93937769.352        -484.380          52.375  
E11  27013963.350   141959240.581       -2885.117          28.813    27013969.720   108773938.262       -2210.538          33.125    27013972.469   106008501.695       -2154.245          33.750    27013971.180   107391222.019       -2182.429          36.375  
E15  27526701.859   144653791.699        3187.034          38.375    27526706.936   110838643.888        2441.992          40.125    27526709.029   108020718.008        2379.972          40.750    27526708.512   109429682.989        2410.986          43.375  
E21  28614780.288   150371695.863          41.238          36.188    28614784.553   115219885.887          31.450          39.313    28614786.818   112290575.609          30.665          40.125    28614786.219   113755233.292          31.067          42.750  
E34  23859181.332   125380855.783        1301.412          48.000    23859182.719    96071057.761         997.219          48.750    23859184.098    93628579.394         971.836          48.813    23859183.862    94849821.620         984.536          51.875  
E36  24138030.796   126846193.029       -1626.560          46.813    24138033.262    97193837.541       -1246.330          48.563    24138034.910    94722812.006       -1214.664          49.500    24138034.390    95958326.319       -1230.492          52.188  
> 2023 09 10 11 32 04.0000000  0  9                     
E03  28527509.491   149913064.567        3263.807          33.875    28527519.393   114868503.613        2500.663          35.813    28527522.544   111948129.674        2437.193          35.438    28527521.531   113408321.683        2468.947          38.625  
E04  27137474.964   142608358.119       -2456.090          37.563    27137478.711   109271334.187       -1882.120          42.500    27137480.262   106493253.941       -1834.217          42.625    27137480.036   107882295.112       -1858.153          45.563  
E05  24257195.387   127472463.926        2179.230          46.813    24257197.426    97673728.788        1669.813          48.688    24257199.122    95190507.315        1627.323          49.000    24257198.698    96432120.094        1648.570          51.875  
E09  23629883.163   124175873.505        -640.039          47.313    23629883.818    95147755.054        -490.393          49.375    23629885.281    92728748.202        -477.936          49.500    23629884.867    93938253.672        -484.166          52.438  
E11  27014512.448   141962125.361       -2884.215          28.875    27014518.566   108776148.657       -2210.123          33.125    27014521.325   106010655.925       -2153.870          34.000    27014520.171   107393404.337       -2181.999          36.438  
E15  27526095.353   144650604.436        3187.668          38.313    27526100.482   110836201.703        2442.511          40.375    27526102.495   108018337.923        2380.307          40.688    27526101.999   109427271.856        2411.414          43.563  
E21  28614772.270   150371654.760          41.215          36.250    28614776.831   115219854.396          31.490          39.188    28614778.974   112290544.909          30.855          40.250    28614778.389   113755202.195          31.195          42.688  
E34  23858933.702   125379554.376        1301.538          48.000    23858935.071    96070060.576         997.364          48.813    23858936.403    93627607.561         971.951          48.938    23858936.219    94848837.111         984.664          51.938  
E36  24138340.302   126847819.529       -1626.253          46.813    24138342.785    97195083.821       -1246.132          48.625    24138344.436    94724026.596       -1214.398          49.688    24138343.906    95959556.755       -1230.266          52.188  
