     3.03           OBSERVATION DATA    R: GLONASS          RINEX VERSION / TYPE
CONVBIN demo5 b34g                      20231126 132224 UTC PGM / RUN BY / DATE 
log: 20230910-MSM7.rtcm                                     COMMENT             
format: RTCM 3                                              COMMENT             
format: RTCM 3                                              COMMENT             
log: 20230910-MSM7.rtcm                                     COMMENT             
0000                                                        MARKER NAME         
                                                            MARKER NUMBER       
                                                            MARKER TYPE         
                                                            OBSERVER / AGENCY   
3614512             SEPT MOSAIC-X5      4.10.0.1            REC # / TYPE / VERS 
Unknown                                                     ANT # / TYPE        
  4030581.7173   316269.1857  4916722.7347                  APPROX POSITION XYZ 
        0.0000        0.0000        0.0000                  ANTENNA: DELTA H/E/N
R   12 C1C L1C D1C S1C C2C L2C D2C S2C C2P L2P D2P S2P      SYS / # / OBS TYPES 
  2023    09    10    11    30   01.0000000     GPS         TIME OF FIRST OBS   
  2023    09    10    11    55   18.0000000     GPS         TIME OF LAST OBS    
R L1C                                                       SYS / PHASE SHIFT   
R L2C                                                       SYS / PHASE SHIFT   
R L2P  0.00000                                              SYS / PHASE SHIFT   
 10 R05  1 R06 -4 R07  5 R08  6 R14 -7 R15  0 R16 -1 R21  4 GLONASS SLOT / FRQ #
    R22 -3 R23  3                                           GLONASS SLOT / FRQ #
 C1C    0.000 C1P    0.000 C2C    0.000 C2P    0.000        GLONASS COD/PHS/BIS 
                                                            END OF HEADER       
> 2023 09 10 11 30 01.0000000  0 10                     
R05  23877959.944   127641310.0951      -3538.656          40.375    23877972.729    99276575.6731      -2752.254          37.063    23877971.779    99276596.6821      -2752.067          38.063  
R06  19525378.850   104191166.7601      -1124.289          37.813                                                                                                                                  
R07  20162796.813   107933079.5931       2374.875          49.625    20162804.780    83947995.3831       1847.122          46.750    20162805.055    83948003.3891       1847.075          46.813  
R08  23999330.279   128515341.3031       3985.176          38.063    23999344.505    99956443.3221       3099.612          35.750    23999343.852    99956447.3351       3099.538          36.750  
R14  24059196.999   128249060.6251      -2201.611          39.125    24059208.828    99749311.0831      -1712.434          41.250    24059208.974    99749313.0751      -1712.152          40.688  
R15  22611705.952   120830170.5231        926.200          42.938    22611716.556    93979099.2201        720.482          42.875    22611716.434    93979094.2251        720.313          42.813  
R16  23379471.538   124888993.1901       3790.422          40.063    23379486.424    97135971.4261       2948.049          40.563    23379486.023    97135965.4331       2947.903          40.688  
R21  20623868.603   110362458.0361      -3139.231          47.625    20623878.004    85837489.1241      -2441.611          46.000    20623878.149    85837493.1281      -2441.781          46.063  
R22  19592991.164   104588727.3781        780.185          50.563    19592997.577    81346814.6841        606.846          47.625    19592997.683    81346822.6951        606.720          48.375  
R23  22780818.801   121862031.2271       4288.832          39.938                                                                                                                                  
> 2023 09 10 11 30 02.0000000  0 10                     
R05  23878621.536   127644847.952       -3537.323          40.313    23878634.329    99279327.333       -2751.160          37.250    23878633.459    99279348.363       -2751.450          37.938  
R06  19525589.840   104192290.548       -1123.541          37.625                                                                                                                                  
R07  20162353.034   107930704.111        2375.735          49.563    20162361.047    83946147.792        1847.782          46.750    20162361.251    83946155.800        1847.613          46.688  
R08  23998586.177   128511355.331        3986.413          38.125    23998600.223    99953343.142        3100.388          35.625    23998599.560    99953347.122        3100.197          36.625  
R14  24059610.154   128251261.707       -2200.936          39.875    24059621.634    99751023.023       -1711.812          41.375    24059622.129    99751025.030       -1711.852          41.125  
R15  22611532.555   120829243.908         926.743          43.125    22611543.015    93978378.529         720.707          42.750    22611543.069    93978373.538         720.574          42.875  
R16  23378762.278   124885202.097        3791.432          40.125    23378776.674    97133022.809        2948.834          40.438    23378776.345    97133016.812        2948.752          40.438  
R21  20624455.224   110365596.742       -3138.489          47.625    20624464.428    85839930.330       -2441.043          45.938    20624464.737    85839934.340       -2441.245          46.000  
R22  19592844.986   104587946.845         780.547          50.563    19592851.530    81346207.608         607.108          47.688    19592851.546    81346215.614         606.978          48.313  
R23  22780017.117   121857741.814        4289.682          39.875                                                                                                                                  
> 2023 09 10 11 30 03.0000000  0 10                     
R05  23879283.315   127648385.685       -3537.597          40.625    23879295.644    99282078.925       -2751.374          37.438    23879295.290    99282099.912       -2751.386          37.688  
R06  19525800.714   104193414.719       -1124.250          37.750                                                                                                                                  
R07  20161909.344   107928329.013        2375.003          49.313    20161917.532    83944300.497        1847.218          46.750    20161917.518    83944308.497        1847.216          46.688  
R08  23997841.867   128507369.385        3985.940          38.313    23997855.528    99950242.924        3100.118          35.375    23997855.196    99950246.941        3100.295          36.625  
R14  24060022.977   128253463.290       -2201.809          40.438    24060034.955    99752735.371       -1712.447          41.438    24060035.253    99752737.374       -1712.522          40.750  
R15  22611358.986   120828318.048         925.544          43.313    22611369.872    93977658.421         719.873          42.688    22611369.937    93977653.414         719.910          42.875  
R16  23378052.530   124881411.290        3790.810          40.125    23378067.168    97130074.415        2948.310          40.438    23378066.725    97130068.404        2948.405          40.688  
R21  20625041.870   110368735.927       -3139.309          47.688    20625050.969    85842371.917       -2441.717          46.125    20625051.423    85842375.910       -2441.686          45.938  
R22  19592698.952   104587167.099         779.409          50.563    19592705.404    81345601.161         606.100          47.875    19592705.525    81345609.167         606.062          48.313  
R23  22779215.167   121853452.644        4289.144          39.813                                                                                                                                  
> 2023 09 10 11 30 04.0000000  0 10                     
R05  23879944.971   127651922.907       -3536.989          40.438    23879957.271    99284830.099       -2751.110          37.375    23879957.059    99284851.104       -2751.113          37.875  
R06  19526011.430   104194538.920       -1124.458          37.813                                                                                                                                  
R07  20161465.648   107925953.900        2374.961          49.188    20161473.811    83942453.192        1847.201          46.688    20161473.763    83942461.194        1847.162          46.625  
R08  23997096.782   128503383.057        3986.353          38.125    23997111.016    99947142.478        3100.543          35.375    23997110.782    99947146.472        3100.499          36.625  
R14  24060435.785   128255665.002       -2201.864          40.875    24060448.025    99754447.837       -1712.573          41.500    24060448.387    99754449.820       -1712.513          41.125  
R15  22611185.767   120827392.535         925.128          43.125    22611196.487    93976938.590         719.562          42.688    22611196.720    93976933.571         719.590          42.875  
R16  23377342.905   124877620.347        3790.897          40.250    23377357.604    97127125.902        2948.494          40.313    23377356.949    97127119.892        2948.470          40.313  
R21  20625628.556   110371875.226       -3139.484          47.500    20625637.802    85844813.593       -2441.903          46.125    20625638.050    85844817.588       -2441.878          45.750  
R22  19592553.021   104586387.794         779.004          50.563    19592559.544    81344995.035         605.919          47.938    19592559.540    81345003.035         605.845          48.313  
R23  22778413.190   121849163.347        4289.163          39.750                                                                                                                                  
> 2023 09 10 11 30 05.0000000  0 10                     
R05  23880606.642   127655460.365       -3537.523          40.313    23880619.006    99287581.458       -2751.267          37.625    23880618.832    99287602.457       -2751.411          38.125  
R06  19526222.169   104195663.834       -1125.204          37.688                                                                                                                                  
R07  20161022.144   107923579.502        2374.104          49.000    20161030.291    83940606.446        1846.473          46.625    20161030.192    83940614.444        1846.558          46.625  
R08  23996352.260   128499397.156        3985.819          38.000    23996366.557    99944042.327        3100.032          35.125    23996366.248    99944046.340        3100.292          36.563  
R14  24060849.110   128257867.576       -2202.961          41.000    24060860.932    99756160.934       -1713.353          41.563    24060861.703    99756162.933       -1713.413          41.000  
R15  22611012.573   120826468.115         923.939          43.125    22611023.276    93976219.587         718.514          42.625    22611023.780    93976214.586         718.581          43.000  
R16  23376633.577   124873830.003        3790.148          40.438    23376647.488    97124177.869        2947.859          40.250    23376647.263    97124171.851        2947.949          40.313  
R21  20626215.289   110375015.399       -3140.593          47.563    20626224.486    85847255.942       -2442.648          46.063    20626224.866    85847259.939       -2442.601          45.688  
R22  19592407.241   104585609.620         777.695          50.438    19592413.787    81344389.787         604.859          47.875    19592413.783    81344397.786         604.926          48.125  
R23  22777611.666   121844874.637        4288.431          39.688                                                                                                                                  
> 2023 09 10 11 30 06.0000000  0 10                     
R05  23881268.862   127658998.435       -3538.165          40.500    23881281.443    99290333.295       -2751.979          37.375    23881280.932    99290354.279       -2751.708          37.813  
R06  19526433.449   104196789.895       -1126.228          37.938                                                                                                                                  
R07  20160578.788   107921206.219        2372.981          48.875    20160587.019    83938760.552        1845.684          46.625    20160586.884    83938768.553        1845.658          46.750  
R08  23995607.962   128495412.006        3985.204          38.125    23995621.871    99940942.810        3099.477          35.375    23995621.987    99940946.791        3099.484          36.500  
R14  24061262.514   128260071.451       -2204.439          40.938    24061274.587    99757875.047       -1714.325          41.438    24061275.082    99757877.054       -1714.316          40.750  
R15  22610839.862   120825545.220         922.374          43.250    22610850.488    93975501.784         717.383          42.625    22610851.149    93975496.772         717.504          42.563  
R16  23375924.235   124870040.675        3789.005          40.188    23375938.478    97121230.610        2946.982          40.250    23375937.857    97121224.606        2946.911          40.375  
R21  20626802.302   110378156.846       -3141.817          47.500    20626811.483    85849699.287       -2443.656          46.063    20626811.918    85849703.277       -2443.612          46.063  
R22  19592261.706   104584832.983         776.109          50.438    19592268.242    81343785.744         603.604          48.000    19592268.294    81343793.739         603.680          48.250  
R23  22776810.053   121840586.935        4287.423          39.875                                                                                                                                  
> 2023 09 10 11 30 07.0000000  0 10                     
R05  23881930.833   127662537.163       -3539.057          40.500    23881943.194    99293085.620       -2752.544          37.750    23881943.068    99293106.600       -2752.348          38.563  
R06  19526644.353   104197917.160       -1127.790          38.000                                                                                                                                  
R07  20160135.571   107918834.122        2371.566          48.813    20160143.874    83936915.606        1844.496          46.500    20160143.711    83936923.591        1844.577          46.625  
R08  23994863.978   128491427.721        3983.923          38.063    23994877.721    99937843.912        3098.442          35.750    23994877.949    99937847.882        3098.521          36.500  
R14  24061676.333   128262276.684       -2205.882          40.875    24061687.919    99759590.240       -1715.690          40.938    24061688.583    99759592.215       -1715.645          40.688  
R15  22610667.342   120824623.888         920.509          43.188    22610677.832    93974785.188         716.015          42.375    22610678.678    93974780.179         716.122          42.563  
R16  23375214.607   124866252.434        3787.688          39.875    23375229.290    97118284.218        2945.902          40.250    23375228.663    97118278.191        2945.974          40.750  
R21  20627389.368   110381299.599       -3143.352          47.313    20627398.842    85852143.656       -2444.882          46.125    20627399.230    85852147.646       -2444.899          45.875  
R22  19592116.406   104584057.925         774.274          50.375    19592122.983    81343182.916         602.229          48.000    19592123.101    81343190.913         602.189          48.250  
R23  22776008.304   121836300.275        4286.146          40.125                                                                                                                                  
> 2023 09 10 11 30 08.0000000  0 10                     
R05  23882592.865   127666075.755       -3538.118          40.563    23882605.085    99295837.837       -2751.697          37.813    23882605.266    99295858.842       -2751.743          38.188  
R06  19526855.944   104199044.803       -1127.444          38.125                                                                                                                                  
R07  20159692.489   107916462.386        2371.990          48.750    20159700.678    83935070.918        1844.848          46.438    20159700.640    83935078.917        1844.904          46.500  
R08  23994120.178   128487443.442        3984.823          38.313    23994133.383    99934745.035        3099.031          36.188    23994134.234    99934749.016        3099.226          36.688  
R14  24062089.855   128264482.484       -2205.642          40.875    24062101.632    99761305.867       -1715.542          40.938    24062102.212    99761307.850       -1715.383          40.375  
R15  22610495.201   120823703.304         920.630          43.063    22610505.735    93974069.186         716.152          42.500    22610506.377    93974064.189         716.011          42.750  
R16  23374505.393   124862464.433        3788.305          40.125    23374519.762    97115338.009        2946.360          40.250    23374519.476    97115332.010        2946.437          40.688  
R21  20627976.720   110384442.830       -3143.049          47.375    20627986.415    85854588.386       -2444.624          46.188    20627986.703    85854592.380       -2444.590          45.938  
R22  19591971.347   104583283.652         774.274          50.438    19591977.841    81342580.700         602.235          48.000    19591978.091    81342588.702         602.263          48.250  
R23  22775207.245   121832013.863        4286.667          40.313                                                                                                                                  
> 2023 09 10 11 30 09.0000000  0 10                     
R05  23883254.445   127669613.817       -3539.092          40.563    23883267.370    99298589.660       -2752.475          37.813    23883267.191    99298610.646       -2752.409          38.063  
R06  19527067.179   104200172.445       -1128.770          38.250                                                                                                                                  
R07  20159249.422   107914090.642        2370.646          48.813    20159257.613    83933226.231        1843.757          46.375    20159257.494    83933234.228        1843.857          46.563  
R08  23993376.315   128483458.841        3983.518          38.063    23993389.353    99931645.898        3098.251          36.438    23993390.213    99931649.888        3098.269          36.813  
R14  24062503.824   128266688.433       -2207.284          40.500    24062515.364    99763021.593       -1716.675          40.500    24062515.801    99763023.587       -1716.615          40.313  
R15  22610323.198   120822783.074         918.875          43.188    22610334.007    93973353.445         714.789          42.500    22610334.077    93973348.446         714.752          42.750  
R16  23373795.789   124858676.323        3787.004          39.938    23373810.738    97112391.711        2945.502          40.375    23373810.398    97112385.700        2945.573          40.375  
R21  20628564.092   110387586.174       -3144.550          47.250    20628573.611    85857033.204       -2445.778          46.188    20628574.154    85857037.196       -2445.730          45.875  
R22  19591826.373   104582509.783         772.532          50.438    19591832.972    81341978.804         600.843          48.063    19591833.156    81341986.800         600.865          48.250  
R23  22774405.888   121827727.301        4285.487          40.625                                                                                                                                  
> 2023 09 10 11 30 10.0000000  0 10                     
R05  23883916.730   127673151.942       -3538.350          40.375    23883929.577    99301341.537       -2751.918          37.438    23883928.973    99301362.539       -2751.871          38.125  
R06  19527278.101   104201300.662       -1128.494          38.000                                                                                                                                  
R07  20158806.578   107911719.468        2370.790          48.938    20158814.669    83931381.987        1843.922          46.375    20158814.530    83931389.983        1844.007          46.625  
R08  23992632.013   128479474.472        3984.098          38.000    23992645.606    99928546.964        3098.678          36.313    23992646.377    99928550.926        3098.890          36.688  
R14  24062917.791   128268895.082       -2207.103          40.500    24062929.131    99764737.886       -1716.589          40.438    24062929.565    99764739.863       -1716.524          40.125  
R15  22610151.359   120821863.768         918.663          43.063    22610161.939    93972638.431         714.619          42.813    22610161.978    93972633.429         714.631          42.688  
R16  23373086.467   124854888.690        3787.224          40.188    23373101.740    97109445.765        2945.726          40.500    23373101.319    97109439.768        2945.736          40.688  
R21  20629151.746   110390730.236       -3144.570          47.188    20629161.107    85859478.582       -2445.728          46.250    20629161.730    85859482.572       -2445.726          46.000  
R22  19591681.549   104581736.881         772.301          50.438    19591688.221    81341377.662         600.637          48.063    19591688.401    81341385.655         600.745          48.188  
R23  22773605.190   121823441.193        4285.832          40.500                                                                                                                                  
> 2023 09 10 11 30 11.0000000  0 10                     
R05  23884578.471   127676689.873       -3537.214          40.500    23884591.379    99304093.250       -2751.216          37.438    23884590.724    99304114.242       -2751.163          38.313  
R06  19527489.768   104202429.197       -1128.207          37.875                                                                                                                                  
R07  20158363.748   107909348.595        2371.386          49.000    20158371.882    83929537.972        1844.444          46.375    20158371.629    83929545.978        1844.404          46.500  
R08  23991888.204   128475490.045        3985.019          37.813    23991901.673    99925447.941        3099.636          36.563    23991902.447    99925451.926        3099.657          36.938  
R14  24063332.042   128271102.177       -2206.708          40.625    24063343.118    99766454.510       -1716.172          40.375    24063343.508    99766456.509       -1716.262          40.313  
R15  22609979.475   120820945.110         918.942          43.125    22609989.938    93971923.933         714.609          42.625    22609989.977    93971918.928         714.665          42.563  
R16  23372378.044   124851101.192        3788.169          40.125    23372392.618    97106499.944        2946.291          40.438    23372392.339    97106493.962        2946.219          40.688  
R21  20629739.311   110393874.717       -3144.095          47.188    20629748.812    85861924.277       -2445.311          46.125    20629749.381    85861928.280       -2445.389          45.875  
R22  19591536.752   104580964.664         772.465          50.313    19591543.571    81340777.045         600.869          48.125    19591543.713    81340785.047         600.896          48.250  
R23  22772804.385   121819155.249        4286.508          40.563                                                                                                                                  
> 2023 09 10 11 30 12.0000000  0 10                     
R05  23885240.498   127680227.508       -3537.703          40.438    23885253.085    99306844.721       -2751.496          37.688    23885252.448    99306865.718       -2751.367          38.438  
R06  19527700.696   104203557.946       -1129.330          38.188                                                                                                                                  
R07  20157920.921   107906977.946        2370.229          49.188    20157929.073    83927694.132        1843.456          46.375    20157928.720    83927702.129        1843.634          46.500  
R08  23991144.060   128471505.466        3984.482          37.813    23991157.951    99922348.831        3099.094          36.500    23991158.127    99922352.841        3098.837          37.000  
R14  24063746.142   128273309.652       -2208.019          40.688    24063757.208    99768171.442       -1717.311          40.375    24063757.410    99768173.422       -1717.122          40.000  
R15  22609807.412   120820027.056         917.547          43.000    22609818.010    93971209.888         713.607          42.625    22609818.110    93971204.887         713.584          42.188  
R16  23371669.214   124847313.830        3786.972          39.938    23371683.649    97103554.243        2945.340          40.563    23371683.395    97103548.230        2945.508          40.938  
R21  20630327.198   110397019.528       -3145.229          47.125    20630336.478    85864370.240       -2446.245          46.125    20630337.104    85864374.234       -2446.218          45.938  
R22  19591392.214   104580193.098         770.955          50.250    19591398.979    81340176.944         599.615          48.125    19591399.172    81340184.940         599.680          48.250  
R23  22772003.420   121814869.405        4285.566          40.813                                                                                                                                  
> 2023 09 10 11 30 13.0000000  0 10                     
R05  23885902.218   127683764.976       -3537.290          40.563    23885914.614    99309596.097       -2751.251          37.625    23885914.213    99309617.093       -2751.254          38.625  
R06  19527912.412   104204687.051       -1129.427          38.000                                                                                                                                  
R07  20157478.189   107904607.625        2370.214          49.250    20157486.301    83925850.548        1843.505          46.250    20157485.885    83925858.545        1843.580          46.563  
R08  23990399.960   128467520.864        3984.745          37.375    23990414.446    99919249.706        3099.233          36.875    23990414.090    99919253.698        3099.325          37.375  
R14  24064160.521   128275517.579       -2208.060          40.438    24064171.138    99769888.719       -1717.546          40.438    24064171.594    99769890.704       -1717.416          40.125  
R15  22609636.028   120819109.708         917.073          43.250    22609646.358    93970496.393         713.366          42.625    22609646.395    93970491.405         713.138          42.250  
R16  23370960.452   124843526.678        3787.038          39.875    23370974.838    97100608.671        2945.520          40.625    23370974.513    97100602.681        2945.560          40.875  
R21  20630915.073   110400164.783       -3145.411          47.125    20630924.201    85866816.544       -2446.432          46.000    20630924.836    85866820.541       -2446.392          46.063  
R22  19591247.797   104579422.281         770.492          50.125    19591254.555    81339577.416         599.226          48.188    19591254.779    81339585.412         599.339          48.250  
R23  22771202.380   121810583.795        4285.464          40.750                                                                                                                                  
> 2023 09 10 11 30 14.0000000  0 10                     
R05  23886564.265   127687302.682       -3537.672          40.625    23886576.810    99312347.646       -2751.651          37.750    23886576.102    99312368.658       -2751.699          38.188  
R06  19528124.032   104205816.884       -1130.058          37.688                                                                                                                                  
R07  20157035.546   107902238.017        2369.414          49.313    20157043.598    83924007.525        1842.914          46.250    20157043.195    83924015.520        1842.853          46.563  
R08  23989655.731   128463536.650        3984.311          37.438    23989670.335    99916150.870        3098.699          36.875    23989669.966    99916154.854        3098.877          37.125  
R14  24064575.193   128277726.403       -2209.125          40.750    24064585.754    99771606.692       -1718.357          40.625    24064586.011    99771608.684       -1718.226          40.250  
R15  22609464.637   120818193.454         915.895          43.063    22609475.090    93969783.770         712.269          42.625    22609474.864    93969778.755         712.263          42.438  
R16  23370251.343   124839740.146        3786.277          39.750    23370265.683    97097663.595        2944.932          40.438    23370265.743    97097657.601        2944.950          41.000  
R21  20631503.069   110403310.909       -3146.379          47.250    20631512.113    85869263.535       -2447.286          46.000    20631512.837    85869267.522       -2447.223          45.938  
R22  19591103.596   104578652.606         769.248          50.000    19591110.298    81338978.781         598.284          48.000    19591110.610    81338986.780         598.309          48.188  
R23  22770400.992   121806298.787        4284.785          40.750                                                                                                                                  
> 2023 09 10 11 30 15.0000000  0 10                     
R05  23887226.532   127690840.343       -3537.734          40.500    23887238.969    99315099.151       -2751.705          37.688    23887237.858    99315120.139       -2751.384          38.563  
R06  19528335.897   104206947.204       -1130.607          37.813                                                                                                                                  
R07  20156593.013   107899868.854        2368.821          49.438    20156600.915    83922164.848        1842.362          46.250    20156600.563    83922172.840        1842.487          46.375  
R08  23988911.557   128459552.509        3983.896          37.188    23988926.130    99913052.085        3098.803          37.063    23988926.081    99913056.082        3098.673          37.250  
R14  24064989.806   128279935.841       -2209.940          41.188    24065000.327    99773325.130       -1718.736          40.625    24065000.633    99773327.127       -1718.784          40.250  
R15  22609293.402   120817278.004         914.896          43.125    22609303.653    93969071.753         711.572          42.688    22609303.435    93969066.736         711.749          42.250  
R16  23369542.687   124835953.935        3785.997          39.500    23369557.264    97094718.792        2944.533          40.500    23369557.004    97094712.773        2944.834          40.750  
R21  20632091.269   110406457.609       -3147.079          47.188    20632100.183    85871710.960       -2447.709          46.000    20632100.873    85871714.953       -2447.630          45.875  
R22  19590959.610   104577883.790         768.258          50.000    19590966.242    81338380.810         597.545          48.000    19590966.561    81338388.808         597.678          48.125  
R23  22769600.220   121802014.117        4284.374          40.813                                                                                                                                  
> 2023 09 10 11 30 16.0000000  0 10                     
R05  23887888.334   127694377.360       -3536.873          40.563    23887900.637    99317850.132       -2750.667          37.750    23887899.358    99317871.138       -2750.886          38.813  
R06  19528547.888   104208077.375       -1130.193          37.750                                                                                                                                  
R07  20156150.322   107897499.575        2369.270          49.563    20156158.309    83920322.066        1842.802          46.313    20156157.943    83920330.060        1842.811          46.313  
R08  23988167.344   128455567.860        3984.789          37.250    23988182.112    99909952.946        3099.330          37.250    23988181.855    99909956.927        3099.427          37.438  
R14  24065404.752   128282145.315       -2209.587          41.438    24065414.840    99775043.630       -1718.643          40.625    24065415.210    99775045.620       -1718.657          40.438  
R15  22609122.145   120816362.790         914.975          42.938    22609132.443    93968359.914         711.638          42.938    22609132.159    93968354.904         711.760          42.500  
R16  23368833.682   124832167.482        3786.483          39.500    23368848.384    97091773.785        2945.193          40.438    23368848.001    97091767.776        2945.138          41.000  
R21  20632679.486   110409604.301       -3146.810          47.313    20632688.190    85874158.383       -2447.469          45.938    20632688.950    85874162.379       -2447.499          46.000  
R22  19590815.690   104577115.248         768.271          50.000    19590822.098    81337783.060         597.512          47.938    19590822.556    81337791.052         597.590          48.188  
R23  22768798.991   121797729.201        4284.945          40.625                                                                                                                                  
> 2023 09 10 11 30 17.0000000  0 10                     
R05  23888550.121   127697914.424       -3537.440          40.813    23888561.699    99320601.201       -2751.625          37.500    23888560.930    99320622.202       -2751.505          38.938  
R06  19528759.964   104209208.210       -1131.574          37.813                                                                                                                                  
R07  20155707.722   107895130.928        2367.908          49.688    20155715.746    83918479.799        1841.651          46.250    20155715.405    83918487.798        1841.577          46.438  
R08  23987423.760   128451583.499        3983.863          37.250    23987438.001    99906854.010        3098.555          37.125    23987437.956    99906858.002        3098.390          37.813  
R14  24065819.753   128284355.620       -2211.200          41.688    24065829.762    99776762.736       -1719.756          41.000    24065830.020    99776764.741       -1719.883          40.438  
R15  22608950.975   120815448.582         913.190          42.875    22608961.043    93967648.864         710.295          42.813    22608961.007    93967643.861         710.249          42.438  
R16  23368124.853   124828381.531        3785.142          39.000    23368140.080    97088829.177        2943.902          40.375    23368139.182    97088823.168        2943.932          40.813  
R21  20633267.550   110412751.745       -3148.277          47.375    20633276.392    85876606.391       -2448.675          46.000    20633277.116    85876610.390       -2448.688          45.938  
R22  19590671.843   104576347.743         766.548          49.813    19590678.301    81337186.116         596.184          48.000    19590678.772    81337194.115         596.076          48.125  
R23  22767997.772   121793444.804        4283.679          40.625                                                                                                                                  
> 2023 09 10 11 30 18.0000000  0 10                     
R05  23889211.608   127701452.206       -3537.800          40.625    23889223.154    99323352.804       -2751.655          37.625    23889222.722    99323373.800       -2751.595          38.188  
R06  19528971.952   104210340.245       -1132.232          38.063                                                                                                                                  
R07  20155265.337   107892763.511        2367.166          49.625    20155273.714    83916638.473        1841.125          46.188    20155273.162    83916646.465        1841.089          46.313  
R08  23986680.232   128447600.076        3983.409          37.063    23986693.995    99903755.790        3098.277          37.188    23986694.200    99903759.770        3098.041          37.625  
R14  24066234.758   128286567.296       -2211.990          41.563    24066245.058    99778482.937       -1720.393          41.000    24066244.982    99778484.934       -1720.574          40.500  
R15  22608780.081   120814535.937         912.282          42.688    22608790.442    93966939.023         709.530          43.000    22608790.214    93966934.034         709.350          42.313  
R16  23367416.287   124824596.705        3784.536          39.000    23367431.637    97085885.417        2943.675          40.563    23367430.707    97085879.416        2943.457          40.750  
R21  20633856.088   110415900.545       -3149.135          47.438    20633864.683    85879055.450       -2449.295          45.938    20633865.559    85879059.449       -2449.379          46.125  
R22  19590528.485   104575581.888         765.391          49.750    19590534.846    81336590.447         595.339          47.938    19590535.295    81336598.443         595.272          48.125  
R23  22767197.014   121789161.507        4283.137          40.438                                                                                                                                  
> 2023 09 10 11 30 19.0000000  0 10                     
R05  23889873.726   127704990.237       -3538.083          40.625    23889884.475    99326104.618       -2751.989          37.625    23889884.611    99326125.610       -2751.726          38.250  
R06  19529184.049   104211473.053       -1132.992          38.063                                                                                                                                  
R07  20154823.173   107890396.883        2366.326          49.813    20154831.578    83914797.757        1840.494          46.250    20154831.070    83914805.753        1840.548          46.438  
R08  23985936.322   128443617.095        3982.646          36.813    23985950.172    99900657.913        3097.740          37.750    23985950.489    99900661.893        3097.922          37.875  
R14  24066650.024   128288779.904       -2213.009          41.750    24066659.944    99780203.844       -1721.170          40.938    24066660.168    99780205.837       -1721.015          40.375  
R15  22608609.379   120813624.449         911.040          42.500    22608619.821    93966230.092         708.612          42.750    22608619.635    93966225.079         708.707          42.250  
R16  23366707.145   124820812.536        3783.960          39.125    23366723.114    97082942.199        2943.003          40.625    23366722.165    97082936.172        2943.233          40.938  
R21  20634444.734   110419050.255       -3150.005          47.625    20634453.263    85881505.224       -2450.027          46.000    20634454.181    85881509.217       -2449.912          46.063  
R22  19590385.200   104574817.198         764.239          49.813    19590391.611    81335995.692         594.403          48.063    19590391.944    81336003.687         594.463          48.188  
R23  22766395.928   121784878.863        4282.388          40.375                                                                                                                                  
> 2023 09 10 11 30 20.0000000  0 10                     
R05  23890535.247   127708527.633       -3537.261          40.875    23890545.975    99328855.882       -2751.105          37.875    23890546.398    99328876.899       -2751.060          38.563  
R06  19529396.443   104212605.720       -1132.717          38.000                                                                                                                                  
R07  20154381.066   107888030.082        2366.799          49.875    20154389.515    83912956.916        1840.789          46.438    20154388.952    83912964.912        1840.850          46.563  
R08  23985192.155   128439633.584        3983.627          36.563    23985206.168    99897559.637        3098.430          38.125    23985206.621    99897563.615        3098.470          38.188  
R14  24067065.021   128290992.470       -2212.668          41.125    24067075.206    99781924.727       -1720.899          41.500    24067075.532    99781926.726       -1721.000          40.438  
R15  22608438.647   120812713.162         911.130          42.688    22608449.537    93965521.312         708.626          42.625    22608449.131    93965516.312         708.656          42.313  
R16  23365998.552   124817028.089        3784.294          39.063    23366014.701    97079998.738        2943.414          40.688    23366013.654    97079992.739        2943.426          40.625  
R21  20635033.525   110422199.919       -3149.666          47.688    20635041.950    85883954.960       -2449.775          46.063    20635042.758    85883958.953       -2449.732          46.125  
R22  19590242.056   104574052.764         764.207          49.813    19590248.284    81335401.125         594.398          48.000    19590248.696    81335409.126         594.342          48.125  
R23  22765595.572   121780595.903        4283.009          40.688                                                                                                                                  
> 2023 09 10 11 30 21.0000000  0 10                     
R05  23891196.716   127712064.934       -3538.038          40.688    23891208.139    99331607.120       -2751.779          37.875    23891207.992    99331628.128       -2751.786          38.250  
R06  19529608.759   104213738.806       -1133.942          38.125                                                                                                                                  
R07  20153938.961   107885663.694        2365.474          50.063    20153947.497    83911116.396        1839.838          46.563    20153946.874    83911124.385        1839.863          46.500  
R08  23984448.402   128435650.138        3982.786          36.750    23984462.180    99894461.431        3097.604          38.188    23984462.798    99894465.398        3097.723          38.000  
R14  24067480.027   128293205.580       -2214.114          41.000    24067490.296    99783646.029       -1722.081          41.625    24067490.719    99783648.042       -1722.146          40.313  
R15  22608268.112   120811802.677         909.382          42.500    22608278.947    93964813.160         707.301          42.688    22608278.915    93964808.169         707.336          42.125  
R16  23365289.850   124813243.926        3783.405          39.000    23365306.032    97077055.526        2942.541          40.875    23365305.206    97077049.517        2942.661          41.188  
R21  20635622.249   110425350.122       -3151.171          47.813    20635630.740    85886405.114       -2450.928          45.938    20635631.411    85886409.108       -2450.875          46.063  
R22  19590098.945   104573289.144         762.525          49.813    19590105.116    81334807.177         593.045          48.063    19590105.626    81334815.187         593.055          48.188  
R23  22764794.859   121776313.208        4281.884          40.500                                                                                                                                  
> 2023 09 10 11 30 22.0000000  0 10                     
R05  23891858.203   127715602.707       -3537.637          40.688    23891870.310    99334358.728       -2751.474          37.688    23891869.739    99334379.712       -2751.383          38.125  
R06  19529821.657   104214872.904       -1134.125          37.875                                                                                                                                  
R07  20153497.071   107883298.272        2365.419          50.125    20153505.640    83909276.618        1839.773          46.625    20153505.087    83909284.616        1839.751          46.500  
R08  23983704.952   128431667.347        3982.950          36.563    23983718.366    99891363.676        3097.967          38.188    23983719.324    99891367.677        3097.811          38.188  
R14  24067895.021   128295419.794       -2214.254          40.688    24067905.446    99785368.203       -1722.261          41.688    24067906.069    99785370.198       -1722.162          40.188  
R15  22608097.690   120810893.545         908.990          42.813    22608108.384    93964106.054         706.957          42.625    22608108.854    93964101.067         706.822          42.250  
R16  23364581.677   124809460.628        3783.162          38.813    23364597.802    97074112.952        2942.614          40.938    23364597.121    97074106.957        2942.621          40.813  
R21  20636211.222   110428501.399       -3151.343          47.875    20636219.742    85888856.097       -2450.978          45.813    20636220.351    85888860.100       -2451.083          46.000  
R22  19589956.120   104572526.903         762.038          49.688    19589962.273    81334214.324         592.766          48.000    19589962.829    81334222.333         592.654          48.188  
R23  22763994.091   121772031.378        4281.845          40.875                                                                                                                                  
> 2023 09 10 11 30 23.0000000  0 10                     
R05  23892519.774   127719140.010       -3537.016          40.375    23892532.181    99337109.956       -2750.906          37.750    23892531.427    99337130.953       -2750.893          38.250  
R06  19530034.531   104216007.092       -1134.300          38.000                                                                                                                                  
R07  20153055.170   107880932.879        2365.398          50.188    20153063.757    83907436.873        1839.733          46.563    20153063.357    83907444.868        1839.731          46.688  
R08  23982961.003   128427684.214        3983.394          36.063    23982974.439    99888265.702        3098.131          38.250    23982975.586    99888269.689        3098.227          38.438  
R14  24068310.184   128297634.248       -2214.766          40.688    24068321.050    99787090.542       -1722.427          41.438    24068321.542    99787092.536       -1722.493          40.500  
R15  22607928.051   120809984.827         908.474          42.813    22607938.254    93963399.286         706.540          42.750    22607938.843    93963394.272         706.725          42.375  
R16  23363873.938   124805677.259        3783.240          38.625    23363889.247    97071170.349        2942.645          41.063    23363888.945    97071164.347        2942.711          41.063  
R21  20636800.068   110431652.871       -3151.554          48.063    20636808.450    85891307.239       -2451.203          45.938    20636809.264    85891311.237       -2451.137          46.250  
R22  19589813.512   104571765.133         761.482          49.750    19589819.754    81333621.846         592.279          47.938    19589820.144    81333629.840         592.456          48.313  
R23  22763194.043   121767749.473        4281.905          40.750                                                                                                                                  
> 2023 09 10 11 30 24.0000000  0 10                     
R05  23893181.727   127722677.094       -3537.323          40.375    23893193.894    99339861.015       -2751.175          37.750    23893193.062    99339882.020       -2751.176          38.125  
R06  19530246.729   104217141.586       -1135.144          38.063                                                                                                                                  
R07  20152613.327   107878567.773        2364.595          50.313    20152621.911    83905597.343        1839.067          46.500    20152621.569    83905605.340        1839.181          46.563  
R08  23982217.119   128423701.038        3982.676          35.938    23982230.916    99885167.681        3097.686          38.188    23982231.695    99885171.666        3097.588          38.500  
R14  24068725.596   128299849.171       -2215.567          40.188    24068736.532    99788813.258       -1723.279          41.188    24068736.977    99788815.237       -1723.100          39.875  
R15  22607758.200   120809076.782         907.371          42.875    22607768.225    93962693.023         705.683          42.688    22607768.841    93962688.018         705.758          42.375  
R16  23363165.707   124801894.113        3782.697          38.688    23363181.212    97068227.905        2942.101          41.000    23363180.792    97068221.887        2942.191          41.188  
R21  20637388.948   110434804.781       -3152.572          48.063    20637397.437    85893758.721       -2451.965          45.938    20637398.257    85893762.716       -2451.932          46.000  
R22  19589670.931   104571004.085         760.342          49.813    19589677.105    81333029.916         591.333          48.000    19589677.517    81333037.920         591.316          48.188  
R23  22762394.053   121763467.733        4281.280          40.813                                                                                                                                  
> 2023 09 10 11 30 25.0000000  0 10                     
R05  23893843.163   127726214.062       -3536.145          40.250    23893855.146    99342612.012       -2750.260          37.750    23893854.835    99342633.007       -2750.384          38.313  
R06  19530459.519   104218276.502       -1134.442          38.250                                                                                                                                  
R07  20152171.852   107876203.058        2365.249          50.500    20152180.040    83903758.120        1839.657          46.500    20152179.840    83903766.117        1839.579          46.688  
R08  23981472.673   128419717.904        3983.698          35.875    23981487.124    99882069.694        3098.515          38.313    23981487.836    99882073.670        3098.459          38.563  
R14  24069140.815   128302064.674       -2215.149          40.500    24069152.366    99790536.423       -1722.819          40.625    24069152.418    99790538.410       -1722.924          39.313  
R15  22607588.282   120808169.510         907.624          43.000    22607598.592    93961987.368         706.000          42.625    22607599.148    93961982.364         705.849          42.250  
R16  23362457.631   124798111.288        3783.386          38.813    23362472.868    97065285.711        2942.800          40.938    23362472.720    97065279.706        2942.683          40.875  
R21  20637978.096   110437957.205       -3151.979          48.188    20637986.506    85896210.610       -2451.552          45.938    20637987.344    85896214.605       -2451.574          46.188  
R22  19589528.487   104570243.862         760.502          49.750    19589534.844    81332438.628         591.602          47.938    19589535.024    81332446.629         591.416          48.250  
R23  22761593.821   121759186.278        4282.093          40.563                                                                                                                                  
> 2023 09 10 11 30 26.0000000  0 10                     
R05  23894504.660   127729750.796       -3536.541          40.188    23894517.084    99345362.791       -2750.581          37.938    23894516.725    99345383.810       -2750.602          38.375  
R06  19530672.115   104219411.637       -1135.062          37.938                                                                                                                                  
R07  20151730.210   107873838.628        2364.436          50.563    20151738.224    83901919.123        1838.960          46.500    20151738.129    83901927.120        1839.090          46.563  
R08  23980728.706   128415734.682        3983.302          35.625    23980742.877    99878971.645        3098.188          38.500    23980743.852    99878975.636        3098.209          38.563  
R14  24069556.672   128304280.587       -2216.009          40.563    24069567.269    99792259.914       -1723.629          40.125    24069567.778    99792261.902       -1723.516          39.375  
R15  22607418.764   120807262.860         906.470          42.875    22607428.968    93961282.209         704.958          42.688    22607429.458    93961277.209         705.003          42.250  
R16  23361749.380   124794328.616        3782.803          38.625    23361764.802    97062343.652        2942.060          41.188    23361764.737    97062337.650        2942.237          41.125  
R21  20638567.198   110441110.017       -3152.860          48.063    20638575.808    85898662.789       -2452.163          46.000    20638576.481    85898666.805       -2452.246          46.000  
R22  19589386.330   104569484.290         759.384          49.875    19589392.499    81331847.858         590.569          47.938    19589392.733    81331855.864         590.657          48.125  
R23  22760793.398   121754904.958        4281.460          40.688                                                                                                                                  
> 2023 09 10 11 30 27.0000000  0 10                     
R05  23895165.930   127733287.489       -3536.940          40.125    23895179.029    99348113.547       -2750.860          38.063    23895178.297    99348134.540       -2750.743          38.375  
R06  19530884.772   104220547.264       -1135.952          38.000                                                                                                                                  
R07  20151288.779   107871474.687        2363.477          50.625    20151296.859    83900080.500        1838.253          46.625    20151296.561    83900088.485        1838.380          46.625  
R08  23979985.378   128411751.504        3982.931          35.438    23979999.318    99875873.643        3097.774          38.688    23979999.913    99875877.633        3097.862          38.563  
R14  24069972.538   128306497.081       -2217.078          41.125    24069982.915    99793983.856       -1724.442          39.625    24069983.317    99793985.848       -1724.242          39.000  
R15  22607249.232   120806357.029         905.150          42.625    22607259.529    93960577.677         704.100          42.750    22607259.832    93960572.665         704.067          42.250  
R16  23361041.265   124790546.277        3781.934          38.750    23361057.069    97059401.835        2941.665          41.125    23361056.677    97059395.823        2941.727          40.875  
R21  20639156.500   110444263.388       -3153.907          48.063    20639165.139    85901115.414       -2453.067          45.938    20639165.710    85901119.402       -2452.977          46.125  
R22  19589244.225   104568725.593         758.034          49.875    19589250.422    81331257.752         589.578          47.875    19589250.629    81331265.754         589.642          48.125  
R23  22759993.352   121750623.972        4280.597          40.500                                                                                                                                  
> 2023 09 10 11 30 28.0000000  0 10                     
R05  23895827.495   127736823.852       -3536.371          39.750    23895840.869    99350864.070       -2750.533          38.188    23895839.873    99350885.046       -2750.275          38.125  
R06  19531097.658   104221683.071       -1136.031          38.125                                                                                                                                  
R07  20150847.210   107869110.952        2363.568          50.688    20150855.335    83898242.041        1838.372          46.625    20150854.984    83898250.031        1838.365          46.750  
R08  23979241.404   128407768.219        3983.195          35.313    23979255.733    99872775.520        3098.045          38.750    23979256.081    99872779.501        3098.066          38.750  
R14  24070388.613   128308713.916       -2217.087          41.688    24070398.426    99795708.071       -1724.381          39.250    24070398.892    99795710.067       -1724.382          39.125  
R15  22607079.541   120805451.762         904.791          42.688    22607090.245    93959873.581         703.766          42.875    22607090.541    93959868.572         703.699          42.500  
R16  23360333.533   124786763.949        3782.270          39.063    23360349.017    97056460.053        2941.767          41.063    23360348.654    97056454.043        2941.735          40.813  
R21  20639745.733   110447417.084       -3153.951          48.063    20639754.436    85903568.284       -2453.100          46.000    20639755.003    85903572.270       -2453.045          46.125  
R22  19589102.217   104567967.498         757.622          50.000    19589108.451    81330668.125         589.317          47.875    19589108.566    81330676.123         589.353          48.250  
R23  22759193.033   121746343.043        4280.784          40.563                                                                                                                                  
> 2023 09 10 11 30 29.0000000  0 10                     
R05  23896488.723   127740360.364       -3536.721          39.750    23896502.079    99353614.664       -2750.638          37.938    23896501.611    99353635.675       -2750.665          38.000  
R06  19531310.890   104222819.543       -1136.916          38.125                                                                                                                                  
R07  20150405.864   107866747.871        2362.624          50.750    20150413.925    83896404.087        1837.652          46.750    20150413.541    83896412.079        1837.570          46.813  
R08  23978497.469   128403785.217        3982.796          35.375    23978511.633    99869677.649        3097.578          38.813    23978512.338    99869681.629        3097.603          38.875  
R14  24070804.810   128310931.558       -2218.261          41.875    24070814.480    99797432.918       -1725.166          39.125    24070814.641    99797434.915       -1725.292          39.250  
R15  22606910.328   120804547.529         903.641          42.625    22606921.195    93959170.278         702.809          42.875    22606921.326    93959165.280         702.716          42.313  
R16  23359625.411   124782982.171        3781.343          39.000    23359640.855    97053518.671        2941.064          41.000    23359640.801    97053512.673        2941.094          40.938  
R21  20640335.289   110450571.574       -3155.035          48.188    20640343.990    85906021.763       -2453.933          46.188    20640344.533    85906025.759       -2453.880          46.063  
R22  19588960.415   104567210.462         756.401          50.000    19588966.562    81330079.317         588.279          47.875    19588966.753    81330087.321         588.277          48.313  
R23  22758392.692   121742062.667        4280.139          40.500                                                                                                                                  
> 2023 09 10 11 30 30.0000000  0 10                     
R05  23897150.533   127743896.898       -3535.761          39.625    23897163.213    99356365.312       -2749.919          37.813    23897163.282    99356386.319       -2750.140          38.188  
R06  19531523.749   104223956.580       -1136.426          37.750                                                                                                                                  
R07  20149964.656   107864385.312        2363.054          50.750    20149972.540    83894566.546        1837.914          46.688    20149972.174    83894574.543        1837.865          46.813  
R08  23977753.620   128399802.455        3983.185          35.375    23977767.936    99866579.979        3098.185          38.875    23977768.654    99866583.954        3097.974          39.000  
R14  24071221.275   128313149.891       -2218.021          42.063    24071230.578    99799158.296       -1725.114          39.563    24071230.756    99799160.296       -1725.099          39.563  
R15  22606741.263   120803644.211         903.601          42.438    22606752.200    93958467.700         702.770          43.000    22606752.169    93958462.713         702.727          42.375  
R16  23358917.785   124779200.859        3781.773          39.250    23358932.813    97050577.644        2941.467          41.063    23358932.876    97050571.651        2941.496          40.625  
R21  20640924.991   110453726.736       -3154.729          48.250    20640933.682    85908475.775       -2453.697          46.063    20640934.260    85908479.779       -2453.770          46.125  
R22  19588818.822   104566454.384         756.328          50.063    19588825.127    81329491.260         588.283          47.750    19588825.132    81329499.263         588.211          48.063  
R23  22757592.522   121737782.724        4280.480          40.438                                                                                                                                  
> 2023 09 10 11 30 31.0000000  0 10                     
R05  23897812.437   127747433.449       -3536.557          39.563    23897824.597    99359115.962       -2750.682          37.625    23897824.930    99359136.953       -2750.656          37.938  
R06  19531736.793   104225094.189       -1137.885          37.688                                                                                                                                  
R07  20149523.425   107862023.294        2361.795          50.750    20149531.274    83892729.419        1836.985          46.688    20149530.918    83892737.410        1836.982          46.938  
R08  23977008.708   128395819.969        3982.192          35.313    23977024.297    99863482.478        3097.458          39.000    23977024.929    99863486.451        3097.354          39.188  
R14  24071637.760   128315368.973       -2219.448          41.875    24071646.993    99800884.242       -1726.244          40.250    24071647.463    99800886.242       -1726.149          39.938  
R15  22606572.383   120802741.799         901.938          42.563    22606583.367    93957765.836         701.558          42.875    22606583.293    93957760.823         701.547          42.250  
R16  23358210.019   124775419.984        3780.693          39.375    23358225.141    97047636.989        2940.496          41.188    23358225.148    97047630.984        2940.475          40.688  
R21  20641514.823   110456882.574       -3156.163          48.500    20641523.487    85910930.302       -2454.736          46.125    20641524.026    85910934.308       -2454.736          46.188  
R22  19588677.422   104565699.284         754.649          50.125    19588683.647    81328903.962         586.901          47.688    19588683.717    81328911.960         586.880          48.125  
R23  22756792.638   121733503.198        4279.314          40.313                                                                                                                                  
> 2023 09 10 11 30 32.0000000  0 10                     
R05  23898474.217   127750969.905       -3536.109          39.625    23898486.502    99361866.522       -2750.220          37.500    23898486.604    99361887.531       -2750.271          37.875  
R06  19531949.672   104226232.255       -1137.969          37.563                                                                                                                                  
R07  20149082.145   107859661.714        2361.653          50.813    20149090.050    83890892.633        1836.916          46.750    20149089.793    83890900.626        1836.845          46.813  
R08  23976265.312   128391837.575        3982.559          35.250    23976280.526    99860385.062        3097.691          39.125    23976281.200    99860389.054        3097.454          39.313  
R14  24072054.134   128317588.663       -2219.610          41.500    24072063.688    99802610.665       -1726.441          40.688    24072064.093    99802612.663       -1726.402          40.188  
R15  22606403.406   120801840.187         901.567          42.500    22606414.331    93957064.592         701.143          43.000    22606414.548    93957059.577         701.139          42.313  
R16  23357502.328   124771639.455        3780.770          39.250    23357517.453    97044696.592        2940.531          41.250    23357517.473    97044690.584        2940.507          41.188  
R21  20642104.585   110460038.967       -3156.317          48.563    20642113.269    85913385.282       -2454.925          46.313    20642113.927    85913389.278       -2454.959          46.125  
R22  19588536.288   104564945.026         754.180          50.250    19588542.228    81328317.322         586.514          47.625    19588542.427    81328325.323         586.512          48.063  
R23  22755992.810   121729223.985        4279.396          40.438                                                                                                                                  
> 2023 09 10 11 30 33.0000000  0 10                     
R05  23899135.698   127754506.032       -3536.123          39.938    23899147.786    99364616.851       -2750.470          37.813    23899148.145    99364637.855       -2750.493          38.188  
R06  19532162.929   104227370.513       -1138.802          37.938                                                                                                                                  
R07  20148640.908   107857300.315        2360.965          50.875    20148648.986    83889055.999        1836.319          46.750    20148648.667    83889063.987        1836.348          46.875  
R08  23975521.628   128387854.991        3982.254          35.563    23975536.524    99857287.530        3097.281          39.188    23975537.547    99857291.493        3097.439          39.438  
R14  24072470.821   128319808.692       -2220.585          41.063    24072480.750    99804337.363       -1727.161          40.625    24072480.830    99804339.354       -1727.000          40.063  
R15  22606234.968   120800939.130         900.365          42.563    22606245.583    93956363.755         700.352          43.063    22606246.013    93956358.751         700.349          42.563  
R16  23356794.905   124767859.014        3780.056          39.438    23356809.683    97041756.252        2940.106          41.375    23356809.821    97041750.246        2940.072          41.188  
R21  20642694.519   110463195.661       -3157.180          48.625    20642703.249    85915840.484       -2455.567          46.375    20642703.811    85915844.476       -2455.565          46.125  
R22  19588395.208   104564191.367         753.013          50.250    19588400.967    81327731.147         585.707          47.500    19588401.191    81327739.141         585.756          48.125  
R23  22755192.398   121724944.842        4278.730          40.375                                                                                                                                  
> 2023 09 10 11 30 34.0000000  0 10                     
R05  23899797.463   127758042.062       -3536.651          40.125    23899809.011    99367367.079       -2750.754          37.813    23899809.927    99367388.071       -2750.539          38.000  
R06  19532376.343   104228509.130       -1139.430          37.875                                                                                                                                  
R07  20148199.832   107854939.298        2360.145          51.000    20148207.852    83887219.658        1835.647          46.938    20148207.613    83887227.639        1835.763          46.875  
R08  23974777.807   128383872.432        3982.085          35.500    23974792.946    99854189.980        3097.049          39.563    23974793.857    99854193.948        3097.049          39.688  
R14  24072886.735   128322029.266       -2221.380          40.500    24072897.593    99806064.457       -1727.750          40.688    24072897.558    99806066.464       -1727.644          40.438  
R15  22606066.578   120800038.809         899.390          42.188    22606077.125    93955663.515         699.491          43.000    22606077.584    93955658.504         699.539          42.375  
R16  23356087.334   124764078.795        3779.408          39.188    23356101.834    97038816.095        2939.552          41.063    23356102.250    97038810.094        2939.656          40.688  
R21  20643284.507   110466352.826       -3158.038          48.625    20643293.266    85918296.052       -2456.249          46.313    20643293.827    85918300.052       -2456.221          46.188  
R22  19588254.185   104563438.481         751.862          50.250    19588259.838    81327145.570         584.772          47.438    19588260.044    81327153.570         584.876          47.938  
R23  22754392.491   121720665.918        4278.170          40.500                                                                                                                                  
> 2023 09 10 11 30 35.0000000  0 10                     
R05  23900459.018   127761578.092       -3536.161          40.125    23900470.654    99370117.348       -2750.388          37.813    23900471.361    99370138.339       -2750.462          38.750  
R06  19532589.907   104229648.294       -1139.606          37.875                                                                                                                                  
R07  20147758.842   107852578.795        2360.055          50.938    20147766.945    83885383.715        1835.612          46.875    20147766.698    83885391.703        1835.610          46.938  
R08  23974034.799   128379890.029        3982.193          36.000    23974049.516    99851092.549        3097.212          39.625    23974050.330    99851096.529        3097.243          40.000  
R14  24073303.081   128324250.492       -2221.653          39.938    24073314.241    99807792.082       -1728.094          40.938    24073314.551    99807794.073       -1727.918          40.188  
R15  22605897.873   120799139.393         898.891          42.375    22605908.755    93954963.971         699.029          43.063    22605909.326    93954958.958         699.077          42.563  
R16  23355379.722   124760298.969        3779.508          39.250    23355394.334    97035876.246        2939.479          41.125    23355394.620    97035870.247        2939.556          40.938  
R21  20643874.525   110469510.631       -3158.288          48.750    20643883.355    85920752.122       -2456.500          46.375    20643883.943    85920756.121       -2456.455          46.125  
R22  19588113.237   104562686.526         751.341          50.250    19588119.007    81326560.715         584.339          47.438    19588119.224    81326568.721         584.367          48.063  
R23  22753592.052   121716387.416        4278.112          40.438                                                                                                                                  
> 2023 09 10 11 30 36.0000000  0 10                     
R05  23901120.531   127765114.387       -3537.130          40.563    23901131.735    99372867.777       -2751.108          38.375    23901132.862    99372888.791       -2751.199          38.500  
R06  19532803.678   104230788.170       -1140.899          37.875                                                                                                                                  
R07  20147318.026   107850219.002        2358.655          51.000    20147326.224    83883548.310        1834.540          46.938    20147325.885    83883556.317        1834.444          46.875  
R08  23973291.352   128375907.972        3981.043          35.813    23973306.281    99847995.389        3096.440          39.875    23973306.681    99847999.382        3096.319          39.938  
R14  24073719.313   128326472.551       -2223.262          39.750    24073731.455    99809520.347       -1729.155          41.063    24073731.556    99809522.351       -1729.267          40.438  
R15  22605729.834   120798241.064         896.974          42.375    22605740.470    93954265.281         697.616          43.125    22605741.269    93954260.272         697.613          42.500  
R16  23354672.254   124756519.790        3778.097          39.188    23354686.579    97032936.868        2938.586          41.125    23354687.151    97032930.878        2938.516          40.938  
R21  20644464.950   110472669.312       -3159.910          48.688    20644473.696    85923208.865       -2457.745          46.375    20644474.238    85923212.865       -2457.707          46.125  
R22  19587972.485   104561935.700         749.459          50.313    19587978.321    81325976.733         582.929          47.375    19587978.618    81325984.745         582.903          48.063  
R23  22752792.119   121712109.486        4276.918          40.625                                                                                                                                  
> 2023 09 10 11 30 37.0000000  0 10                     
R05  23901782.510   127768651.439       -3536.413          40.813    23901793.622    99375618.817       -2750.421          38.313    23901794.635    99375639.813       -2750.379          38.500  
R06  19533017.691   104231929.352       -1140.683          37.938                                                                                                                                  
R07  20146877.657   107847860.486        2358.980          51.063    20146885.592    83881713.918        1834.714          47.063    20146885.323    83881721.906        1834.744          47.000  
R08  23972548.205   128371926.854        3981.624          36.063    23972562.797    99844898.967        3096.934          39.813    23972563.229    99844902.952        3096.831          40.000  
R14  24074136.324   128328696.039       -2223.115          39.375    24074148.496    99811249.714       -1728.919          40.875    24074148.853    99811251.699       -1728.894          40.438  
R15  22605562.071   120797344.407         896.903          42.375    22605572.704    93953567.874         697.668          42.938    22605573.485    93953562.872         697.525          42.500  
R16  23353964.921   124752741.782        3778.607          39.000    23353979.251    97029998.430        2938.872          40.875    23353979.870    97029992.445        2938.839          40.563  
R21  20645055.509   110475829.429       -3159.648          48.750    20645064.313    85925666.730       -2457.545          46.375    20645064.827    85925670.729       -2457.549          46.063  
R22  19587832.175   104561186.566         749.455          50.375    19587838.079    81325394.079         582.906          47.500    19587838.280    81325402.084         582.851          48.125  
R23  22751992.907   121707832.733        4277.352          40.875                                                                                                                                  
> 2023 09 10 11 30 38.0000000  0 10                     
R05  23902444.392   127772188.420       -3537.234          41.000    23902455.271    99378369.813       -2751.251          38.688    23902456.283    99378390.798       -2751.110          38.625  
R06  19533231.774   104233071.001       -1142.289          38.000                                                                                                                                  
R07  20146437.061   107845502.445        2357.481          51.188    20146445.086    83879879.889        1833.543          47.000    20146444.873    83879887.877        1833.537          47.000  
R08  23971804.532   128367945.837        3980.630          36.438    23971819.205    99841802.648        3096.020          40.000    23971819.970    99841806.623        3096.040          40.000  
R14  24074553.538   128330920.133       -2224.743          39.563    24074565.712    99812979.581       -1730.461          40.563    24074566.104    99812981.573       -1730.435          40.188  
R15  22605394.584   120796448.578         894.988          42.313    22605405.110    93952871.123         696.153          42.688    22605405.844    93952866.105         696.154          42.500  
R16  23353257.386   124748964.150        3777.072          39.063    23353272.015    97027060.285        2937.669          40.938    23353272.616    97027054.293        2937.697          40.938  
R21  20645646.196   110478990.127       -3161.281          48.875    20645654.885    85928125.052       -2458.801          46.375    20645655.448    85928129.052       -2458.799          46.125  
R22  19587692.004   104560438.312         747.502          50.375    19587697.963    81324812.112         581.292          47.500    19587698.149    81324820.114         581.321          48.125  
R23  22751193.941   121703556.323        4275.844          40.813                                                                                                                                  
> 2023 09 10 11 30 39.0000000  0 10                     
R05  23903106.047   127775725.198       -3536.605          41.063    23903117.155    99381120.619       -2750.607          38.938    23903117.926    99381141.618       -2750.364          38.500  
R06  19533446.133   104234212.966       -1142.082          38.063                                                                                                                                  
R07  20145996.638   107843144.724        2357.672          51.250    20146004.814    83878046.102        1833.736          47.063    20146004.480    83878054.098        1833.792          47.000  
R08  23971060.961   128363964.812        3981.165          36.750    23971075.831    99838706.283        3096.575          40.125    23971076.754    99838710.285        3096.531          40.125  
R14  24074970.875   128333144.726       -2224.844          40.250    24074982.864    99814709.808       -1730.181          40.063    24074983.208    99814711.802       -1730.196          40.250  
R15  22605227.355   120795553.368         894.944          42.313    22605237.655    93952174.871         695.970          42.688    22605238.305    93952169.851         696.042          42.250  
R16  23352550.191   124745186.677        3777.379          38.750    23352564.978    97024122.251        2938.034          40.938    23352565.343    97024116.265        2938.134          40.563  
R21  20646236.807   110482151.224       -3161.163          48.813    20646245.703    85930583.681       -2458.680          46.438    20646246.185    85930587.676       -2458.600          46.125  
R22  19587551.846   104559690.772         747.194          50.375    19587558.021    81324230.684         581.213          47.500    19587558.075    81324238.685         581.261          48.063  
R23  22750394.567   121699280.078        4276.363          40.875                                                                                                                                  
> 2023 09 10 11 30 40.0000000  0 10                     
R05  23903767.671   127779261.805       -3536.635          41.125    23903779.254    99383871.305       -2750.847          39.000    23903779.485    99383892.311       -2750.743          38.875  
R06  19533660.358   104235355.287       -1142.623          38.063                                                                                                                                  
R07  20145556.286   107840787.360        2357.023          51.188    20145564.351    83876212.604        1833.238          47.063    20145564.146    83876220.591        1833.146          47.000  
R08  23970317.117   128359983.829        3980.732          36.750    23970332.389    99835609.981        3096.117          40.250    23970333.338    99835613.975        3096.028          40.375  
R14  24075388.212   128335369.808       -2225.468          40.500    24075400.089    99816440.445       -1731.049          39.875    24075400.348    99816442.443       -1731.150          39.500  
R15  22605059.993   120794658.919         893.932          42.438    22605070.097    93951479.181         695.253          42.563    22605070.825    93951474.166         695.228          42.063  
R16  23351842.730   124741409.445        3776.972          39.000    23351857.941    97021184.404        2937.757          41.250    23351858.184    97021178.420        2937.629          40.500  
R21  20646827.572   110485312.760       -3161.943          48.750    20646836.767    85933042.644       -2459.221          46.500    20646836.945    85933046.642       -2459.276          46.188  
R22  19587411.837   104558943.997         746.222          50.438    19587418.068    81323649.864         580.412          47.563    19587418.181    81323657.865         580.365          48.188  
R23  22749594.931   121695004.083        4275.775          40.813                                                                                                                                  
> 2023 09 10 11 30 41.0000000  0 10                     
R05  23904429.318   127782798.272       -3536.357          41.063    23904440.531    99386621.872       -2750.416          39.250    23904441.204    99386642.884       -2750.439          38.875  
R06  19533874.206   104236498.003       -1142.960          37.938                                                                                                                                  
R07  20145116.030   107838430.348        2356.869          51.125    20145123.822    83874379.371        1833.120          47.188    20145123.875    83874387.354        1833.176          47.000  
R08  23969573.937   128356002.856        3980.985          36.875    23969589.188    99832513.682        3096.383          40.438    23969589.945    99832517.662        3096.392          40.688  
R14  24075805.896   128337595.388       -2225.728          40.625    24075817.510    99818171.473       -1731.240          39.875    24075817.617    99818173.444       -1731.023          39.750  
R15  22604892.888   120793765.237         893.463          42.313    22604902.913    93950784.083         694.922          42.563    22604903.533    93950779.074         694.905          42.375  
R16  23351135.589   124737632.457        3776.931          39.063    23351150.930    97018246.770        2937.469          41.188    23351151.166    97018240.776        2937.652          40.375  
R21  20647418.501   110488474.768       -3162.206          48.813    20647427.558    85935501.981       -2459.455          46.625    20647427.883    85935505.977       -2459.402          46.375  
R22  19587272.172   104558198.006         745.639          50.438    19587278.433    81323069.646         579.917          47.625    19587278.460    81323077.637         580.013          48.188  
R23  22748795.527   121690728.331        4275.563          41.063                                                                                                                                  
> 2023 09 10 11 30 42.0000000  0 10                     
R05  23905090.770   127786334.519       -3536.600          40.938    23905102.365    99389372.312       -2750.815          39.188    23905102.625    99389393.298       -2750.797          38.375  
R06  19534088.106   104237641.025       -1143.495          37.875                                                                                                                                  
R07  20144675.692   107836073.611        2356.110          50.938    20144683.613    83872546.362        1832.496          47.188    20144683.657    83872554.351        1832.469          47.063  
R08  23968830.317   128352021.806        3980.605          37.438    23968846.025    99829417.339        3095.949          40.500    23968846.407    99829421.326        3095.937          40.750  
R14  24076223.929   128339821.428       -2226.793          40.813    24076234.911    99819902.840       -1731.931          39.875    24076235.039    99819904.830       -1732.027          39.813  
R15  22604726.060   120792872.216         892.146          42.375    22604735.795    93950089.513         693.989          42.563    22604736.303    93950084.514         693.851          42.250  
R16  23350428.755   124733855.678        3776.098          39.125    23350443.705    97015309.275        2937.003          40.938    23350444.033    97015303.292        2936.879          40.250  
R21  20648009.547   110491637.225       -3163.187          48.750    20648018.602    85937961.679       -2460.263          46.625    20648018.893    85937965.678       -2460.337          46.313  
R22  19587132.577   104557452.707         744.498          50.563    19587138.833    81322489.979         579.004          47.625    19587138.883    81322497.984         578.950          48.125  
R23  22747996.525   121686452.756        4274.998          41.313                                                                                                                                  
> 2023 09 10 11 30 43.0000000  0 10                     
R05  23905752.269   127789870.871       -3536.315          41.125    23905763.968    99392122.801       -2750.398          39.250    23905764.152    99392143.782       -2750.235          38.375  
R06  19534302.603   104238784.660       -1143.870          37.813                                                                                                                                  
R07  20144235.539   107833717.490        2355.846          50.875    20144243.449    83870713.819        1832.318          47.188    20144243.520    83870721.798        1832.426          47.063  
R08  23968087.259   128348041.038        3980.711          37.563    23968102.630    99826321.170        3096.092          40.750    23968102.835    99826325.156        3096.269          40.688  
R14  24076641.902   128342048.225       -2227.200          41.063    24076652.472    99821634.789       -1732.185          39.500    24076652.532    99821636.780       -1732.274          39.063  
R15  22604558.732   120791980.163         891.562          41.875    22604568.749    93949395.678         693.542          42.438    22604569.310    93949390.673         693.581          42.375  
R16  23349722.190   124730079.378        3776.249          39.188    23349736.740    97012372.169        2936.874          40.813    23349737.047    97012366.171        2937.084          40.063  
R21  20648600.565   110494800.426       -3163.522          48.750    20648609.549    85940421.937       -2460.515          46.625    20648610.019    85940425.921       -2460.386          46.250  
R22  19586993.141   104556708.448         743.751          50.563    19586999.254    81321911.099         578.510          47.563    19586999.440    81321919.099         578.635          48.063  
R23  22747197.401   121682177.671        4274.896          41.188                                                                                                                                  
> 2023 09 10 11 30 44.0000000  0 10                     
R05  23906414.022   127793407.110       -3535.915          41.375    23906425.534    99394873.200       -2750.176          38.938    23906425.586    99394894.193       -2750.144          38.313  
R06  19534516.835   104239928.705       -1144.158          37.563                                                                                                                                  
R07  20143795.604   107831361.791        2355.680          50.688    20143803.381    83868881.611        1832.192          47.313    20143803.530    83868889.597        1832.326          47.188  
R08  23967344.326   128344060.317        3980.877          38.000    23967359.422    99823225.044        3096.361          40.813    23967359.374    99823229.037        3096.357          41.000  
R14  24077059.578   128344275.593       -2227.487          41.250    24077070.035    99823367.188       -1732.390          39.313    24077070.302    99823369.183       -1732.451          39.375  
R15  22604391.851   120791088.835         891.183          41.813    22604401.848    93948702.446         693.166          42.188    22604402.421    93948697.431         693.251          41.938  
R16  23349015.735   124726303.418        3776.023          39.000    23349029.708    97009435.310        2936.897          40.625    23349030.057    97009429.329        2936.935          39.938  
R21  20649191.623   110497964.160       -3163.799          48.813    20649200.790    85942882.613       -2460.721          46.625    20649201.306    85942886.607       -2460.655          46.313  
R22  19586853.920   104555965.002         743.207          50.500    19586860.106    81321332.862         578.144          47.625    19586860.207    81321340.859         578.153          48.125  
R23  22746398.483   121677902.864        4274.877          41.313                                                                                                                                  
> 2023 09 10 11 30 45.0000000  0 10                     
R05  23907075.286   127796943.406       -3536.386          41.313    23907087.006    99397623.650       -2750.598          39.063    23907087.060    99397644.650       -2750.338          38.500  
R06  19534731.830   104241073.293       -1144.946          37.938                                                                                                                                  
R07  20143355.653   107829006.700        2354.694          50.688    20143363.570    83867049.874        1831.461          47.375    20143363.590    83867057.864        1831.499          47.063  
R08  23966601.115   128340079.756        3980.573          38.000    23966615.997    99820129.068        3095.823          40.938    23966616.016    99820133.067        3096.017          41.000  
R14  24077477.439   128346503.694       -2228.555          40.938    24077488.078    99825100.167       -1733.201          39.250    24077488.256    99825102.151       -1733.099          39.125  
R15  22604225.244   120790198.451         889.790          41.688    22604234.878    93948009.923         692.111          42.188    22604235.777    93948004.916         692.191          41.938  
R16  23348309.362   124722527.885        3775.228          39.188    23348322.697    97006498.807        2936.218          40.563    23348323.048    97006492.811        2936.453          40.375  
R21  20649782.813   110501128.568       -3164.832          48.813    20649792.164    85945343.815       -2461.491          46.625    20649792.696    85945347.815       -2461.474          46.250  
R22  19586714.869   104555222.519         741.939          50.438    19586721.177    81320755.373         577.074          47.688    19586721.077    81320763.372         577.168          48.188  
R23  22745599.338   121673628.508        4274.006          41.375                                                                                                                                  
> 2023 09 10 11 30 46.0000000  0 10                     
R05  23907736.948   127800479.461       -3536.292          41.250    23907748.582    99400373.899       -2750.379          38.875    23907748.537    99400394.913       -2750.391          38.688  
R06  19534946.730   104242218.205       -1145.316          37.938                                                                                                                                  
R07  20142915.834   107826651.905        2354.313          50.563    20142923.672    83865218.367        1831.117          47.375    20142923.734    83865226.363        1831.135          47.250  
R08  23965857.537   128336099.146        3980.411          38.313    23965872.416    99817033.051        3095.806          40.813    23965872.707    99817037.048        3095.823          41.250  
R14  24077895.498   128348732.197       -2229.227          40.750    24077906.286    99826833.443       -1733.851          39.625    24077906.353    99826835.432       -1733.729          39.563  
R15  22604058.634   120789308.713         889.137          41.563    22604068.356    93947317.903         691.474          42.125    22604069.222    93947312.894         691.458          41.813  
R16  23347602.504   124718752.547        3774.926          39.313    23347615.696    97003562.437        2935.932          40.438    23347616.174    97003556.442        2936.156          40.000  
R21  20650374.212   110504293.371       -3165.332          48.813    20650383.488    85947805.329       -2461.919          46.750    20650384.148    85947809.321       -2461.958          46.500  
R22  19586576.026   104554480.734         741.124          50.500    19586582.170    81320178.431         576.365          47.750    19586582.162    81320186.436         576.429          48.125  
R23  22744800.393   121669354.327        4273.698          41.375                                                                                                                                  
> 2023 09 10 11 30 47.0000000  0 10                     
R05  23908398.424   127804015.530       -3536.725          41.313    23908409.887    99403124.180       -2750.814          38.625    23908410.016    99403145.180       -2750.554          38.375  
R06  19535161.351   104243363.658       -1146.423          38.063                                                                                                                                  
R07  20142475.943   107824297.605        2353.448          50.438    20142483.725    83863387.253        1830.403          47.375    20142483.959    83863395.245        1830.467          47.250  
R08  23965114.524   128332118.716        3979.813          38.563    23965129.159    99813937.175        3095.293          40.938    23965129.362    99813941.146        3095.566          41.375  
R14  24078314.009   128350961.355       -2230.084          40.063    24078324.598    99828567.225       -1734.488          39.875    24078324.601    99828569.217       -1734.360          39.938  
R15  22603891.937   120788419.872         887.884          41.938    22603901.915    93946626.599         690.478          42.250    22603902.739    93946621.573         690.580          42.000  
R16  23346895.649   124714977.592        3774.108          39.500    23346909.099    97000626.370        2935.367          40.313    23346909.407    97000620.367        2935.533          39.625  
R21  20650965.731   110507458.819       -3166.425          48.813    20650975.070    85950267.336       -2462.768          46.813    20650975.758    85950271.327       -2462.646          46.375  
R22  19586437.204   104553739.892         739.711          50.563    19586443.359    81319602.211         575.367          47.938    19586443.363    81319610.207         575.476          48.250  
R23  22744001.336   121665080.534        4272.959          41.250                                                                                                                                  
> 2023 09 10 11 30 48.0000000  0 10                     
R05  23909059.960   127807551.286       -3535.326          41.188    23909071.570    99405874.215       -2749.736          38.688    23909071.512    99405895.216       -2749.798          38.500  
R06  19535375.533   104244509.305       -1145.519          38.188                                                                                                                                  
R07  20142036.102   107821943.484        2354.245          50.375    20142044.064    83861556.264        1831.118          47.375    20142044.224    83861564.259        1831.101          47.250  
R08  23964370.503   128328138.179        3980.713          38.625    23964385.683    99810841.191        3096.230          41.125    23964386.111    99810845.183        3096.219          41.313  
R14  24078732.364   128353190.885       -2229.417          39.563    24078742.885    99830301.292       -1734.117          40.188    24078743.181    99830303.290       -1734.101          40.188  
R15  22603725.649   120787531.609         888.154          42.125    22603736.043    93945935.731         690.768          42.250    22603736.533    93945930.724         690.833          42.063  
R16  23346188.912   124711202.725        3774.963          39.500    23346202.256    96997690.373        2936.245          40.188    23346202.614    96997684.364        2936.227          39.875  
R21  20651557.518   110510624.596       -3165.689          48.875    20651566.697    85952729.609       -2462.240          46.813    20651567.380    85952733.611       -2462.241          46.250  
R22  19586298.528   104552999.656         740.159          50.625    19586304.730    81319026.469         575.655          48.000    19586304.729    81319034.486         575.606          48.125  
R23  22743202.281   121660806.849        4273.835          41.250                                                                                                                                  
> 2023 09 10 11 30 49.0000000  0 10                     
R05  23909721.026   127811087.496       -3536.280          41.188    23909733.308    99408624.571       -2750.363          38.875    23909733.003    99408645.581       -2750.263          38.750  
R06  19535590.772   104245655.891       -1146.813          38.188                                                                                                                                  
R07  20141596.512   107819590.256        2352.988          50.313    20141604.407    83859725.977        1830.166          47.375    20141604.672    83859733.970        1830.154          47.188  
R08  23963627.123   128324158.219        3979.846          38.563    23963642.280    99807745.685        3095.534          41.000    23963642.883    99807749.689        3095.420          41.125  
R14  24079150.692   128355421.527       -2230.941          39.313    24079161.328    99832036.231       -1735.332          40.188    24079161.989    99832038.232       -1735.216          40.313  
R15  22603560.330   120786644.692         886.402          42.375    22603570.398    93945245.906         689.457          42.250    22603570.587    93945240.876         689.516          41.813  
R16  23345482.317   124707428.702        3773.680          39.688    23345495.857    96994755.018        2935.131          40.250    23345496.115    96994749.022        2935.150          39.750  
R21  20652149.325   110513791.432       -3167.140          48.688    20652158.660    85955192.704       -2463.298          46.750    20652159.159    85955196.694       -2463.351          46.313  
R22  19586160.083   104552260.769         738.464          50.563    19586166.161    81318451.783         574.330          48.000    19586166.363    81318459.785         574.352          48.250  
R23  22742403.462   121656533.957        4272.741          41.438                                                                                                                                  
> 2023 09 10 11 30 50.0000000  0 10                     
R05  23910382.500   127814623.881       -3536.064          41.375    23910394.400    99411375.100       -2750.274          39.000    23910394.772    99411396.103       -2750.395          38.563  
R06  19535806.048   104246803.212       -1147.069          38.188                                                                                                                                  
R07  20141156.995   107817237.744        2352.553          50.125    20141164.907    83857896.250        1829.790          47.375    20141165.197    83857904.250        1829.636          47.188  
R08  23962884.160   128320178.625        3979.768          38.625    23962899.021    99804650.458        3095.340          41.188    23962899.704    99804654.457        3095.333          41.313  
R14  24079569.459   128357653.042       -2231.655          39.625    24079579.903    99833771.845       -1735.651          40.375    24079580.734    99833773.852       -1735.854          40.375  
R15  22603394.756   120785758.849         885.712          42.188    22603404.495    93944556.927         688.902          42.250    22603404.748    93944551.912         688.729          42.125  
R16  23344775.930   124703655.318        3773.337          39.938    23344789.582    96991820.157        2935.029          40.313    23344789.796    96991814.171        2934.651          39.750  
R21  20652741.152   110516959.101       -3167.672          48.625    20652750.661    85957656.438       -2463.787          46.688    20652751.153    85957660.434       -2463.909          46.313  
R22  19586021.871   104551523.011         737.573          50.500    19586027.997    81317877.977         573.716          47.813    19586028.132    81317885.982         573.540          48.188  
R23  22741604.621   121652261.648        4272.436          41.250                                                                                                                                  
> 2023 09 10 11 30 51.0000000  0 10                     
R05  23911043.908   127818159.880       -3535.411          41.375    23911055.357    99414125.336       -2749.749          38.875    23911056.161    99414146.327       -2749.768          38.875  
R06  19536020.982   104247950.680       -1147.200          38.313                                                                                                                                  
R07  20140717.561   107814885.366        2352.679          50.063    20140725.517    83856066.632        1829.808          47.188    20140725.753    83856074.623        1829.840          47.125  
R08  23962140.880   128316198.748        3980.251          38.750    23962155.708    99801555.029        3095.746          41.188    23962156.561    99801559.014        3095.714          41.188  
R14  24079987.849   128359884.800       -2231.516          40.313    24079998.731    99835507.649       -1735.592          40.188    24079999.492    99835509.670       -1735.676          40.500  
R15  22603229.133   120784873.483         885.574          42.313    22603238.690    93943868.294         688.728          42.188    22603239.021    93943863.280         688.632          42.063  
R16  23344069.725   124699881.928        3773.632          40.125    23344083.392    96988885.328        2935.037          40.125    23344083.297    96988879.314        2935.127          39.750  
R21  20653333.135   110520126.972       -3167.663          48.500    20653342.545    85960120.333       -2463.756          46.625    20653343.173    85960124.333       -2463.747          46.438  
R22  19585883.698   104550785.777         737.286          50.500    19585889.880    81317304.568         573.443          47.813    19585889.963    81317312.572         573.475          48.125  
R23  22740805.903   121647989.356        4272.526          41.250                                                                                                                                  
> 2023 09 10 11 30 52.0000000  0 10                     
R05  23911705.416   127821695.416       -3535.311          41.000    23911716.791    99416875.179       -2749.682          38.750    23911717.742    99416896.166       -2749.530          38.750  
R06  19536235.557   104249098.173       -1147.484          38.063                                                                                                                                  
R07  20140278.125   107812533.060        2352.260          49.938    20140286.111    83854237.064        1829.532          47.375    20140286.317    83854245.055        1829.562          47.188  
R08  23961398.085   128312218.589        3980.281          38.875    23961412.550    99798459.352        3095.637          40.938    23961413.261    99798463.338        3095.822          41.250  
R14  24080406.715   128362116.718       -2231.902          40.750    24080417.494    99837243.616       -1736.060          40.500    24080418.331    99837245.587       -1735.910          40.250  
R15  22603063.681   120783988.513         884.814          42.188    22603073.135    93943179.994         688.179          42.250    22603073.365    93943174.972         688.178          42.000  
R16  23343363.414   124696108.474        3773.393          39.813    23343376.733    96985950.432        2934.847          40.063    23343376.790    96985944.437        2934.879          39.750  
R21  20653925.206   110523295.009       -3168.163          48.438    20653934.745    85962584.357       -2464.099          46.688    20653935.198    85962588.351       -2464.134          46.313  
R22  19585745.650   104550048.999         736.588          50.688    19585751.948    81316731.517         572.889          47.813    19585751.902    81316739.519         572.890          48.250  
R23  22740007.078   121643716.982        4272.338          41.313                                                                                                                                  
> 2023 09 10 11 30 53.0000000  0 10                     
R05  23912366.513   127825230.723       -3534.828          41.000    23912378.423    99419624.871       -2749.246          38.875    23912379.091    99419645.876       -2749.443          38.438  
R06  19536451.442   104250246.009       -1147.497          38.188                                                                                                                                  
R07  20139838.646   107810181.050        2352.218          49.813    20139846.517    83852407.722        1829.498          47.438    20139847.007    83852415.718        1829.530          47.375  
R08  23960655.096   128308238.403        3980.494          38.813    23960669.283    99795363.627        3096.088          41.000    23960669.974    99795367.638        3095.944          41.375  
R14  24080825.087   128364349.084       -2232.204          41.313    24080836.566    99838979.870       -1736.076          40.563    24080837.197    99838981.872       -1736.121          40.125  
R15  22602898.066   120783104.226         884.362          42.250    22602907.866    93942492.205         687.929          42.250    22602907.951    93942487.195         687.823          42.188  
R16  23342657.329   124692335.194        3773.567          39.750    23342670.570    96983015.649        2934.980          40.250    23342670.479    96983009.647        2934.951          39.375  
R21  20654517.293   110526463.499       -3168.401          48.438    20654526.947    85965048.729       -2464.191          46.563    20654527.219    85965052.730       -2464.284          46.375  
R22  19585607.659   104549312.907         736.105          50.750    19585613.981    81316159.009         572.538          47.750    19585614.038    81316167.009         572.546          48.250  
R23  22739208.744   121639444.790        4272.488          41.375                                                                                                                                  
> 2023 09 10 11 30 54.0000000  0 10                     
R05  23913027.671   127828766.062       -3535.039          41.000    23913039.748    99422374.569       -2749.378          38.625    23913040.224    99422395.582       -2749.682          38.375  
R06  19536666.615   104251394.366       -1148.458          38.063                                                                                                                                  
R07  20139399.297   107807829.573        2351.473          49.813    20139407.400    83850578.804        1828.900          47.500    20139407.733    83850586.803        1828.817          47.188  
R08  23959912.236   128304258.400        3980.157          38.688    23959925.901    99792268.072        3095.647          40.688    23959926.705    99792272.068        3095.746          40.813  
R14  24081244.014   128366582.144       -2233.210          41.625    24081255.349    99840716.695       -1736.907          40.313    24081256.081    99840718.704       -1737.027          39.750  
R15  22602732.732   120782220.841         883.134          42.063    22602742.716    93941805.130         686.991          42.188    22602742.742    93941800.128         686.798          42.188  
R16  23341950.894   124688562.305        3773.035          39.813    23341964.238    96980081.202        2934.500          40.375    23341964.240    96980075.200        2934.525          39.625  
R21  20655109.362   110529632.661       -3169.209          48.313    20655118.994    85967513.639       -2464.900          46.625    20655119.449    85967517.632       -2465.050          46.500  
R22  19585469.941   104548577.761         734.958          50.688    19585476.275    81315587.228         571.610          47.875    19585476.374    81315595.236         571.494          48.250  
R23  22738410.118   121635172.988        4271.858          41.250                                                                                                                                  
> 2023 09 10 11 30 55.0000000  0 10                     
R05  23913688.734   127832301.999       -3536.335          40.625    23913701.584    99425124.746       -2750.594          38.313    23913701.501    99425145.716       -2750.238          38.000  
R06  19536881.737   104252543.783       -1150.111          38.125                                                                                                                                  
R07  20138960.226   107805479.187        2349.651          49.563    20138968.456    83848750.725        1827.519          47.563    20138968.696    83848758.710        1827.621          47.250  
R08  23959168.858   128300279.139        3978.747          38.750    23959182.892    99789173.100        3094.432          40.750    23959183.638    99789177.083        3094.713          40.875  
R14  24081663.349   128368816.462       -2235.160          41.875    24081674.443    99842454.511       -1738.594          39.813    24081675.117    99842456.500       -1738.359          39.563  
R15  22602567.813   120781338.922         880.865          42.250    22602577.487    93941119.180         685.240          42.125    22602577.703    93941114.175         685.201          41.938  
R16  23341245.177   124684790.449        3771.262          40.125    23341258.131    96977147.523        2933.172          40.563    23341258.113    96977141.510        2933.400          39.938  
R21  20655701.713   110532803.027       -3171.121          48.250    20655711.424    85969979.472       -2466.483          46.688    20655711.868    85969983.460       -2466.386          46.438  
R22  19585332.568   104547844.146         732.707          50.813    19585338.862    81315016.637         569.888          47.875    19585338.943    81315024.632         570.029          48.188  
R23  22737611.641   121630902.168        4270.164          41.375                                                                                                                                  
> 2023 09 10 11 30 56.0000000  0 10                     
R05  23914350.605   127835838.764       -3537.370          40.188    23914363.227    99427875.549       -2751.196          38.313    23914363.203    99427896.542       -2751.143          38.063  
R06  19537097.388   104253694.582       -1151.657          38.188                                                                                                                                  
R07  20138521.443   107803130.147        2348.094          49.375    20138529.692    83846923.699        1826.316          47.500    20138529.936    83846931.688        1826.349          47.063  
R08  23958426.025   128296300.881        3977.477          38.688    23958440.084    99786078.897        3093.559          40.375    23958440.629    99786082.907        3093.645          40.875  
R14  24082082.976   128371052.264       -2236.747          41.938    24082093.512    99844193.484       -1739.928          39.313    24082094.286    99844195.468       -1739.620          39.313  
R15  22602403.058   120780458.724         879.132          42.313    22602412.728    93940434.603         683.730          42.188    22602412.996    93940429.588         683.757          42.063  
R16  23340539.314   124681019.818        3769.816          40.188    23340552.238    96974214.823        2932.075          40.625    23340552.173    96974208.824        2932.138          39.813  
R21  20656294.355   110535974.848       -3172.806          48.313    20656304.071    85972446.443       -2467.721          46.813    20656304.510    85972450.426       -2467.653          46.500  
R22  19585195.501   104547112.300         730.702          50.813    19585201.787    81314447.426         568.300          47.938    19585201.879    81314455.424         568.396          48.313  
R23  22736813.670   121626632.582        4268.725          41.000                                                                                                                                  
> 2023 09 10 11 30 57.0000000  0 10                     
R05  23915012.075   127839375.211       -3536.147          40.000    23915024.817    99430626.120       -2750.226          38.063    23915024.627    99430647.108       -2750.173          37.750  
R06  19537312.659   104254845.567       -1150.805          38.125                                                                                                                                  
R07  20138082.656   107800781.293        2348.965          49.375    20138090.994    83845096.819        1826.993          47.625    20138091.171    83845104.807        1827.080          47.188  
R08  23957682.816   128292322.469        3978.695          38.500    23957697.198    99782984.591        3094.665          40.250    23957697.615    99782988.589        3094.698          40.125  
R14  24082502.726   128373288.424       -2235.956          41.875    24082512.960    99845932.716       -1739.148          38.813    24082513.345    99845934.714       -1739.293          38.750  
R15  22602238.180   120779579.105         879.614          42.000    22602248.130    93939750.459         684.157          42.188    22602248.297    93939745.449         684.125          41.938  
R16  23339833.147   124677249.270        3770.796          40.375    23339846.359    96971282.184        2932.927          40.875    23339846.493    96971276.185        2932.925          40.250  
R21  20656887.063   110539146.995       -3172.098          48.188    20656896.799    85974913.658       -2467.128          46.688    20656897.326    85974917.652       -2467.131          46.500  
R22  19585058.556   104546381.065         731.157          50.813    19585064.759    81313878.689         568.692          47.938    19585064.877    81313886.687         568.763          48.375  
R23  22736015.815   121622363.083        4269.685          40.938                                                                                                                                  
> 2023 09 10 11 30 58.0000000  0 10                     
R05  23915673.520   127842911.790       -3537.127          39.750    23915686.193    99433376.785       -2751.241          38.125    23915686.307    99433397.783       -2751.167          38.063  
R06  19537527.936   104255997.237       -1152.609          38.125                                                                                                                                  
R07  20137643.787   107798433.118        2347.347          49.313    20137652.279    83843270.463        1825.772          47.625    20137652.554    83843278.472        1825.587          47.313  
R08  23956940.171   128288344.395        3977.438          38.750    23956954.190    99779890.559        3093.566          40.125    23956954.829    99779894.568        3093.381          40.750  
R14  24082923.029   128375525.440       -2237.843          41.500    24082932.394    99847672.631       -1740.638          38.313    24082932.635    99847674.633       -1740.869          38.250  
R15  22602073.481   120778700.535         877.552          42.125    22602083.523    93939067.113         682.631          42.063    22602083.724    93939062.120         682.415          42.063  
R16  23339127.415   124673479.316        3769.043          40.500    23339140.409    96968350.003        2931.670          41.063    23339140.898    96968344.006        2931.511          40.625  
R21  20657479.808   110542319.927       -3173.819          48.188    20657489.526    85977381.495       -2468.534          46.625    20657490.344    85977385.491       -2468.602          46.500  
R22  19584921.885   104545650.896         729.152          50.813    19584927.985    81313310.780         567.115          48.063    19584928.162    81313318.796         566.903          48.313  
R23  22735217.687   121618094.151        4268.224          40.938                                                                                                                                  
> 2023 09 10 11 30 59.0000000  0 10                     
R05  23916335.223   127846448.649       -3536.494          39.625    23916347.669    99436127.671       -2750.493          37.938    23916348.018    99436148.678       -2750.604          38.000  
R06  19537743.793   104257149.699       -1152.484          38.000                                                                                                                                  
R07  20137205.200   107796085.753        2347.478          49.250    20137213.636    83841444.730        1825.858          47.625    20137214.071    83841452.726        1825.883          47.188  
R08  23956197.207   128284366.808        3977.867          38.375    23956212.161    99776796.882        3093.933          40.000    23956211.954    99776800.883        3093.926          40.250  
R14  24083342.755   128377763.378       -2237.786          40.750    24083351.933    99849413.261       -1740.581          38.188    24083352.056    99849415.237       -1740.436          38.500  
R15  22601909.491   120777823.112         877.423          42.125    22601919.252    93938384.685         682.420          42.000    22601919.516    93938379.673         682.405          41.750  
R16  23338421.916   124669710.042        3769.580          40.250    23338434.626    96965418.359        2931.608          40.938    23338435.240    96965412.362        2931.826          39.938  
R21  20658073.072   110545493.767       -3173.742          48.250    20658082.696    85979850.025       -2468.478          46.750    20658083.455    85979854.022       -2468.433          46.438  
R22  19584785.404   104544921.936         728.907          50.938    19584791.522    81312743.813         566.928          48.125    19584791.617    81312751.812         566.938          48.375  
R23  22734419.633   121613825.882        4268.542          40.813                                                                                                                                  
> 2023 09 10 11 31 00.0000000  0 10                     
R05  23916997.149   127849985.031       -3536.499          39.500    23917009.187    99438878.211       -2750.698          37.938    23917009.706    99438899.201       -2750.733          37.500  
R06  19537959.898   104258302.197       -1152.844          38.063                                                                                                                                  
R07  20136766.753   107793738.376        2346.951          49.250    20136775.131    83839618.998        1825.400          47.625    20136775.525    83839627.002        1825.299          47.125  
R08  23955454.733   128280388.851        3977.794          38.188    23955469.353    99773702.923        3093.795          39.750    23955469.088    99773706.936        3093.702          39.938  
R14  24083762.311   128380001.483       -2238.617          40.250    24083771.771    99851153.990       -1741.156          38.188    24083771.587    99851155.993       -1741.163          38.563  
R15  22601745.369   120776946.053         876.423          41.875    22601754.955    93937702.531         681.692          41.813    22601755.515    93937697.521         681.605          42.000  
R16  23337715.968   124665940.670        3768.946          40.125    23337729.215    96962486.648        2931.354          40.813    23337729.707    96962480.643        2931.439          39.938  
R21  20658666.184   110548667.731       -3174.441          48.250    20658675.996    85982318.663       -2468.961          46.813    20658676.495    85982322.659       -2469.051          46.500  
R22  19584648.996   104544193.391         727.891          50.813    19584654.981    81312177.159         566.236          48.250    19584655.130    81312185.171         566.093          48.375  
R23  22733621.491   121609557.513        4268.116          40.938                                                                                                                                  
> 2023 09 10 11 31 01.0000000  0 10                     
R05  23917658.846   127853522.040       -3536.826          39.563    23917671.041    99441629.195       -2750.788          37.563    23917671.470    99441650.211       -2750.967          37.688  
R06  19538175.739   104259455.887       -1153.830          38.188                                                                                                                                  
R07  20136328.449   107791392.160        2346.031          49.063    20136336.867    83837794.173        1824.709          47.500    20136337.235    83837802.170        1824.732          47.188  
R08  23954712.469   128276411.698        3977.189          38.000    23954726.304    99770609.588        3093.361          39.625    23954726.329    99770613.582        3093.483          40.125  
R14  24084182.130   128382240.866       -2239.768          39.938    24084191.987    99852895.727       -1741.927          38.313    24084191.527    99852897.729       -1741.894          38.375  
R15  22601581.343   120776070.525         875.245          41.688    22601591.169    93937021.564         680.719          41.813    22601591.492    93937016.555         680.748          41.563  
R16  23337010.207   124662172.334        3768.321          40.250    23337024.262    96959555.734        2930.923          40.750    23337024.251    96959549.721        2930.812          40.438  
R21  20659259.524   110551842.970       -3175.456          48.313    20659269.356    85984788.287       -2469.781          46.875    20659269.871    85984792.283       -2469.759          46.563  
R22  19584512.760   104543466.411         726.593          50.688    19584518.628    81311611.735         565.176          48.188    19584518.964    81311619.739         565.212          48.438  
R23  22732824.016   121605290.193        4267.147          40.625                                                                                                                                  
> 2023 09 10 11 31 02.0000000  0 10                     
R05  23918320.069   127857058.956       -3536.977          39.750    23918332.739    99444380.108       -2750.941          37.313    23918332.922    99444401.119       -2750.854          37.563  
R06  19538392.329   104260609.982       -1154.529          38.063                                                                                                                                  
R07  20135890.265   107789046.364        2345.480          49.063    20135898.680    83835969.664        1824.236          47.563    20135899.003    83835977.665        1824.239          47.313  
R08  23953970.208   128272434.560        3977.051          37.188    23953983.476    99767516.254        3093.243          39.625    23953983.570    99767520.273        3093.223          40.000  
R14  24084602.226   128384480.830       -2240.332          39.250    24084612.024    99854637.923       -1742.618          38.688    24084611.962    99854639.918       -1742.464          38.563  
R15  22601417.359   120775195.775         874.199          41.813    22601427.559    93936341.200         679.949          41.938    22601427.678    93936336.187         680.046          41.875  
R16  23336304.611   124658404.297        3767.791          40.188    23336318.905    96956625.051        2930.473          40.750    23336318.955    96956619.045        2930.441          40.188  
R21  20659853.199   110555018.727       -3176.159          48.375    20659862.765    85987258.321       -2470.356          46.875    20659863.344    85987262.311       -2470.289          46.625  
R22  19584376.586   104542740.249         725.696          50.500    19584382.621    81311046.951         564.325          48.125    19584382.942    81311054.953         564.388          48.250  
R23  22732026.318   121601023.154        4266.794          40.750                                                                                                                                  
> 2023 09 10 11 31 03.0000000  0 10                     
R05  23918982.081   127860595.788       -3536.539          39.625    23918994.653    99447130.996       -2750.479          37.188    23918994.203    99447151.981       -2750.355          37.625  
R06  19538608.893   104261764.530       -1154.512          37.938                                                                                                                                  
R07  20135452.086   107786701.000        2345.535          49.063    20135460.485    83834145.499        1824.277          47.500    20135460.833    83834153.491        1824.324          47.063  
R08  23953227.185   128268457.519        3977.499          37.063    23953240.527    99764423.020        3093.521          38.938    23953240.646    99764427.028        3093.623          39.875  
R14  24085022.050   128386721.387       -2240.581          39.375    24085032.643    99856380.573       -1742.592          39.313    24085032.482    99856382.571       -1742.579          39.125  
R15  22601253.716   120774321.846         873.838          41.938    22601263.859    93935661.488         679.663          41.688    22601264.030    93935656.480         679.597          41.688  
R16  23335599.300   124654636.593        3767.942          40.375    23335613.575    96953694.608        2930.567          40.438    23335613.673    96953688.611        2930.629          40.188  
R21  20660446.890   110558195.046       -3176.268          48.313    20660456.288    85989728.796       -2470.471          46.875    20660456.903    85989732.776       -2470.344          46.438  
R22  19584240.645   104542014.957         725.214          50.375    19584246.687    81310482.833         564.005          48.063    19584247.094    81310490.833         564.015          48.375  
R23  22731228.811   121596756.430        4266.933          40.750                                                                                                                                  
> 2023 09 10 11 31 04.0000000  0 10                     
R05  23919643.619   127864132.294       -3536.685          39.563    23919656.059    99449881.604       -2750.756          37.063    23919655.659    99449902.605       -2750.697          37.625  
R06  19538825.337   104262919.214       -1155.234          38.063                                                                                                                                  
R07  20135014.010   107784355.785        2344.739          49.063    20135022.363    83832321.447        1823.647          47.563    20135022.627    83832329.451        1823.689          47.125  
R08  23952484.635   128264480.321        3977.002          36.938    23952497.409    99761329.662        3093.053          39.000    23952497.860    99761333.670        3093.103          39.563  
R14  24085442.182   128388962.276       -2241.523          39.813    24085453.188    99858123.493       -1743.310          39.625    24085453.043    99858125.499       -1743.281          39.438  
R15  22601090.164   120773448.476         872.688          42.125    22601100.572    93934982.202         678.750          41.563    22601100.574    93934977.185         678.898          41.563  
R16  23334894.090   124650868.942        3767.235          40.375    23334908.096    96950764.241        2930.024          40.438    23334908.225    96950758.238        2929.977          40.125  
R21  20661040.525   110561371.646       -3177.161          48.375    20661049.912    85992199.472       -2471.038          46.813    20661050.498    85992203.477       -2471.080          46.438  
R22  19584104.756   104541290.244         724.018          50.438    19584111.000    81309919.165         563.088          48.125    19584111.394    81309927.174         563.173          48.313  
R23  22730431.349   121592489.772        4266.143          40.813                                                                                                                                  
> 2023 09 10 11 31 05.0000000  0 10                     
R05  23920305.175   127867668.824       -3536.587          39.938    23920318.092    99452632.224       -2750.643          37.063    23920317.106    99452653.217       -2750.512          37.625  
R06  19539041.730   104264074.396       -1155.354          38.125                                                                                                                                  
R07  20134575.935   107782011.079        2344.564          49.125    20134584.374    83830497.786        1823.546          47.500    20134584.569    83830505.788        1823.525          47.125  
R08  23951742.229   128260503.325        3977.120          37.063    23951754.554    99758236.419        3093.172          38.750    23951755.034    99758240.430        3093.159          39.500  
R14  24085862.075   128391203.833       -2241.822          40.563    24085874.173    99859866.931       -1743.735          39.813    24085873.943    99859868.931       -1743.702          39.000  
R15  22600926.949   120772575.972         872.193          42.188    22600937.342    93934303.588         678.379          41.563    22600937.329    93934298.563         678.399          41.688  
R16  23334188.614   124647101.702        3767.137          40.313    23334203.080    96947834.179        2929.771          40.313    23334202.867    96947828.168        2929.865          40.250  
R21  20661634.313   110564548.855       -3177.417          48.375    20661643.731    85994670.638       -2471.337          46.688    20661644.217    85994674.628       -2471.376          46.438  
R22  19583969.099   104540566.442         723.429          50.375    19583975.380    81309356.211         562.600          48.188    19583975.801    81309364.209         562.605          48.438  
R23  22729633.695   121588223.458        4266.136          40.688                                                                                                                                  
> 2023 09 10 11 31 06.0000000  0 10                     
R05  23920966.761   127871204.946       -3535.995          40.000    23920979.612    99455382.546       -2750.112          37.063    23920978.857    99455403.561       -2750.316          37.563  
R06  19539258.566   104265229.708       -1155.316          37.938                                                                                                                                  
R07  20134138.040   107779666.504        2344.513          49.125    20134146.234    83828674.231        1823.463          47.313    20134146.529    83828682.237        1823.441          47.000  
R08  23950999.044   128256526.056        3977.385          37.000    23951011.903    99755143.013        3093.486          38.750    23951012.365    99755147.016        3093.544          39.500  
R14  24086282.526   128393445.628       -2241.881          41.250    24086294.944    99861610.548       -1743.679          40.250    24086294.933    99861612.559       -1743.753          39.375  
R15  22600763.971   120771703.935         871.761          42.250    22600774.027    93933625.345         677.983          41.813    22600774.074    93933620.329         678.010          41.750  
R16  23333483.350   124643334.484        3767.202          40.250    23333497.847    96944904.104        2930.134          40.063    23333497.509    96944898.112        2930.041          39.813  
R21  20662228.254   110567726.312       -3177.596          48.250    20662237.466    85997141.987       -2471.397          46.625    20662237.942    85997145.979       -2471.478          46.375  
R22  19583833.545   104539843.159         723.023          50.375    19583839.740    81308793.659         562.294          48.125    19583840.328    81308801.665         562.258          48.438  
R23  22728836.358   121583957.164        4266.143          40.750                                                                                                                                  
> 2023 09 10 11 31 07.0000000  0 10                     
R05  23921627.974   127874740.834       -3535.661          39.875    23921641.368    99458132.697       -2750.143          37.625    23921640.277    99458153.688       -2749.983          38.063  
R06  19539475.153   104266385.315       -1155.521          38.063                                                                                                                                  
R07  20133700.144   107777322.235        2344.213          49.250    20133708.167    83826850.913        1823.250          47.250    20133708.583    83826858.915        1823.219          46.938  
R08  23950255.768   128252548.770        3977.249          36.875    23950268.987    99752049.571        3093.575          38.375    23950269.655    99752053.572        3093.593          38.813  
R14  24086703.435   128395687.862       -2242.467          41.500    24086716.032    99863354.517       -1744.168          40.375    24086715.959    99863356.511       -1744.135          39.688  
R15  22600600.716   120770832.551         871.264          42.188    22600611.130    93932947.598         677.542          41.813    22600611.079    93932942.593         677.492          41.563  
R16  23332778.009   124639567.456        3766.889          40.000    23332792.735    96941974.209        2929.852          40.000    23332792.383    96941968.226        2929.831          40.313  
R21  20662822.162   110570904.207       -3178.033          48.250    20662831.345    85999613.675       -2471.769          46.438    20662831.804    85999617.676       -2471.938          46.250  
R22  19583698.003   104539120.594         722.333          50.313    19583704.322    81308231.665         561.725          48.125    19583704.995    81308239.670         561.690          48.438  
R23  22728038.840   121579691.037        4266.224          40.500                                                                                                                                  
> 2023 09 10 11 31 08.0000000  0 10                     
R05  23922289.547   127878276.858       -3535.344          39.875    23922302.866    99460882.914       -2749.768          37.500    23922301.840    99460903.926       -2749.768          37.625  
R06  19539691.686   104267541.629       -1155.963          37.688                                                                                                                                  
R07  20133262.357   107774978.653        2343.917          49.313    20133270.231    83825028.127        1823.050          47.125    20133270.713    83825036.127        1823.021          47.000  
R08  23949512.850   128248571.753        3977.630          37.063    23949526.183    99748956.368        3093.551          38.438    23949526.775    99748960.370        3093.525          38.813  
R14  24087124.611   128397930.880       -2242.718          41.625    24087137.107    99865099.091       -1744.397          40.438    24087136.895    99865101.098       -1744.567          39.625  
R15  22600437.999   120769962.199         870.526          42.375    22600448.547    93932270.649         677.102          41.938    22600448.218    93932265.650         677.089          41.688  
R16  23332073.377   124635800.987        3766.824          40.250    23332087.706    96939044.734        2929.806          40.063    23332087.204    96939038.747        2929.822          40.000  
R21  20663416.093   110574082.907       -3178.382          48.125    20663425.362    86002085.994       -2472.030          46.500    20663425.819    86002089.985       -2472.036          46.375  
R22  19583562.867   104538399.098         721.659          50.250    19583569.245    81307670.499         561.240          48.188    19583569.755    81307678.505         561.215          48.375  
R23  22727241.555   121575425.465        4265.906          40.250                                                                                                                                  
> 2023 09 10 11 31 09.0000000  0 10                     
R05  23922950.703   127881812.636       -3535.716          39.938    23922963.959    99463632.975       -2750.084          37.250    23922963.359    99463653.979       -2749.833          37.938  
R06  19539908.504   104268698.196       -1156.824          37.688                                                                                                                                  
R07  20132824.674   107772635.341        2343.147          49.438    20132832.369    83823205.547        1822.451          47.125    20132832.905    83823213.551        1822.502          47.063  
R08  23948770.176   128244594.715        3976.988          36.938    23948783.698    99745863.094        3093.252          38.375    23948784.088    99745867.113        3093.277          38.438  
R14  24087545.998   128400174.349       -2243.756          41.188    24087558.067    99866843.999       -1745.150          40.375    24087557.921    99866846.011       -1745.188          39.625  
R15  22600275.344   120769092.485         869.351          42.313    22600285.815    93931594.225         676.084          42.188    22600285.443    93931589.215         676.147          41.938  
R16  23331368.425   124632034.630        3766.187          40.313    23331382.620    96936115.359        2929.224          40.063    23331382.127    96936109.368        2929.452          39.813  
R21  20664010.263   110577261.971       -3179.298          48.188    20664019.440    86004558.598       -2472.817          46.375    20664019.901    86004562.590       -2472.695          46.375  
R22  19583427.834   104537678.297         720.449          50.188    19583434.259    81307109.865         560.346          48.250    19583434.703    81307117.880         560.384          48.375  
R23  22726444.099   121571160.037        4265.362          40.438                                                                                                                                  
> 2023 09 10 11 31 10.0000000  0 10                     
R05  23923612.027   127885348.347       -3535.650          40.000    23923625.511    99466382.968       -2750.043          37.375    23923624.823    99466403.971       -2749.916          38.250  
R06  19540125.079   104269855.275       -1157.320          37.500                                                                                                                                  
R07  20132387.008   107770292.464        2342.701          49.438    20132394.633    83821383.317        1822.079          47.000    20132395.178    83821391.328        1822.019          46.938  
R08  23948027.346   128240617.812        3976.920          37.125    23948040.954    99742769.959        3093.100          38.250    23948041.365    99742773.979        3093.066          38.375  
R14  24087967.455   128402418.426       -2244.398          40.688    24087979.366    99868589.404       -1745.580          40.063    24087978.910    99868591.398       -1745.650          39.313  
R15  22600112.741   120768223.655         868.369          42.313    22600123.149    93930918.465         675.440          42.313    22600122.850    93930913.466         675.343          42.063  
R16  23330663.283   124628268.654        3765.785          40.500    23330677.112    96933186.282        2928.923          39.875    23330677.006    96933180.290        2928.944          39.875  
R21  20664604.460   110580441.610       -3179.919          48.063    20664613.511    86007031.645       -2473.287          46.438    20664614.045    86007035.643       -2473.278          46.375  
R22  19583293.016   104536958.385         719.477          50.188    19583299.392    81306549.948         559.619          48.250    19583299.807    81306557.964         559.598          48.438  
R23  22725646.899   121566894.971        4264.913          40.313                                                                                                                                  
> 2023 09 10 11 31 11.0000000  0 10                     
R05  23924273.552   127888884.186       -3535.585          39.750    23924286.479    99469133.071       -2749.915          37.188    23924286.243    99469154.073       -2749.986          37.688  
R06  19540341.852   104271013.004       -1157.729          37.688                                                                                                                                  
R07  20131949.431   107767950.209        2342.274          49.500    20131957.036    83819561.565        1821.749          47.000    20131957.558    83819569.568        1821.745          46.750  
R08  23947284.959   128236641.183        3976.758          37.250    23947298.757    99739677.039        3093.089          38.063    23947298.664    99739681.068        3092.852          38.250  
R14  24088388.591   128404663.306       -2244.875          40.000    24088400.084    99870335.427       -1746.108          39.813    24088399.883    99870337.416       -1746.047          39.188  
R15  22599950.326   120767355.880         867.482          42.500    22599960.907    93930243.529         674.784          42.375    22599960.624    93930238.514         674.832          42.000  
R16  23329958.319   124624503.258        3765.356          40.500    23329972.091    96930257.647        2928.507          39.813    23329972.149    96930251.642        2928.713          39.938  
R21  20665198.715   110583622.005       -3180.450          48.125    20665207.846    86009505.287       -2473.694          46.438    20665208.481    86009509.279       -2473.750          46.438  
R22  19583158.293   104536239.537         718.588          50.188    19583164.707    81305990.833         558.930          48.250    19583165.167    81305998.843         558.876          48.375  
R23  22724849.430   121562630.436        4264.500          40.188                                                                                                                                  
> 2023 09 10 11 31 12.0000000  0 10                     
R05  23924934.661   127892419.818       -3535.328          39.813    23924947.764    99471883.004       -2749.767          37.563    23924947.610    99471903.972       -2749.583          37.563  
R06  19540559.126   104272171.018       -1157.965          37.625                                                                                                                                  
R07  20131511.818   107765608.201        2341.990          49.625    20131519.690    83817740.005        1821.506          46.813    20131519.987    83817747.999        1821.608          46.750  
R08  23946541.624   128232664.519        3976.751          37.375    23946556.215    99736584.075        3093.083          37.938    23946555.901    99736588.054        3093.315          38.188  
R14  24088809.646   128406908.635       -2245.366          39.625    24088820.383    99872081.790       -1746.498          39.375    24088820.725    99872083.751       -1746.163          39.000  
R15  22599787.941   120766488.728         867.044          42.563    22599798.690    93929569.081         674.380          42.250    22599798.326    93929564.063         674.413          42.188  
R16  23329253.450   124620738.042        3765.251          40.375    23329267.686    96927329.131        2928.614          39.750    23329267.140    96927323.142        2928.647          39.625  
R21  20665793.174   110586802.812       -3180.882          48.000    20665802.214    86011979.244       -2473.977          46.438    20665802.907    86011983.232       -2473.950          46.375  
R22  19583023.667   104535521.349         718.014          50.188    19583030.268    81305432.243         558.440          48.125    19583030.594    81305440.240         558.469          48.438  
R23  22724051.945   121558366.030        4264.428          40.125                                                                                                                                  
> 2023 09 10 11 31 13.0000000  0 10                     
R05  23925595.954   127895955.147       -3535.460          39.875    23925609.625    99474632.681       -2749.788          37.750    23925609.070    99474653.689       -2749.950          38.500  
R06  19540776.044   104273329.246       -1158.693          37.500                                                                                                                                  
R07  20131074.466   107763266.444        2341.303          49.688    20131082.097    83815918.641        1820.938          46.625    20131082.510    83815926.638        1821.066          46.875  
R08  23945798.496   128228687.696        3976.485          37.250    23945813.373    99733491.009        3092.940          37.625    23945813.084    99733495.002        3092.902          38.000  
R14  24089230.874   128409154.322       -2246.341          38.875    24089241.196    99873828.426       -1746.983          39.000    24089241.791    99873830.425       -1747.072          39.250  
R15  22599625.588   120765622.147         866.086          42.750    22599636.439    93928895.079         673.370          42.375    22599636.127    93928890.064         673.496          42.188  
R16  23328548.651   124616972.962        3764.606          40.438    23328563.088    96924400.746        2928.124          39.500    23328562.309    96924394.757        2928.201          39.813  
R21  20666387.577   110589983.957       -3181.656          47.938    20666396.786    86014453.464       -2474.623          46.313    20666397.405    86014457.449       -2474.513          46.250  
R22  19582889.391   104534803.810         716.888          50.250    19582895.842    81304874.158         557.632          48.125    19582896.208    81304882.156         557.692          48.375  
R23  22723255.164   121554101.765        4263.981          40.250                                                                                                                                  
> 2023 09 10 11 31 14.0000000  0 10                     
R05  23926257.443   127899490.217       -3535.634          39.688    23926270.522    99477382.168       -2749.962          37.563    23926270.454    99477403.184       -2750.035          37.875  
R06  19540993.097   104274487.692       -1159.309          37.500                                                                                                                                  
R07  20130636.947   107760924.960        2340.624          49.625    20130644.834    83814097.483        1820.456          46.563    20130645.061    83814105.487        1820.559          46.750  
R08  23945055.825   128224710.770        3976.169          37.250    23945070.281    99730397.843        3092.603          37.563    23945070.339    99730401.865        3092.470          38.250  
R14  24089651.465   128411400.354       -2246.893          38.438    24089662.047    99875575.319       -1747.518          38.625    24089662.923    99875577.322       -1747.510          38.938  
R15  22599463.795   120764756.113         865.029          42.813    22599474.336    93928221.490         672.805          42.563    22599474.120    93928216.485         672.814          42.188  
R16  23327844.022   124613207.982        3764.141          40.375    23327858.252    96921472.451        2927.628          39.375    23327857.402    96921466.459        2927.744          39.625  
R21  20666982.005   110593165.436       -3182.406          47.875    20666991.273    86016927.941       -2475.228          46.250    20666991.947    86016931.935       -2475.129          46.188  
R22  19582755.157   104534086.915         715.784          50.313    19582761.529    81304316.570         556.780          48.000    19582761.862    81304324.572         556.817          48.250  
R23  22722457.734   121549837.631        4263.409          40.188                                                                                                                                  
> 2023 09 10 11 31 15.0000000  0 10                     
R05  23926918.901   127903025.605       -3534.939          39.500    23926932.111    99480131.914       -2749.414          37.688    23926931.794    99480152.914       -2749.359          38.250  
R06  19541210.415   104275646.995       -1158.829          37.625                                                                                                                                  
R07  20130199.594   107758584.353        2340.856          49.688    20130207.765    83812277.019        1820.630          46.438    20130207.772    83812285.019        1820.644          46.688  
R08  23944313.682   128220734.328        3976.855          37.500    23944328.016    99727305.052        3093.128          37.375    23944327.624    99727309.063        3093.039          38.188  
R14  24090072.638   128413647.367       -2246.911          38.750    24090083.417    99877322.994       -1747.552          38.688    24090084.213    99877325.002       -1747.486          38.438  
R15  22599301.939   120763891.264         865.054          42.875    22599312.528    93927548.850         672.673          42.625    22599312.328    93927543.838         672.678          42.250  
R16  23327139.339   124609443.708        3764.681          40.375    23327153.268    96918544.695        2927.961          39.250    23327152.777    96918538.687        2928.111          38.875  
R21  20667576.680   110596347.882       -3182.249          47.813    20667585.902    86019403.171       -2475.112          46.250    20667586.548    86019407.167       -2475.121          46.250  
R22  19582621.176   104533371.280         715.679          50.375    19582627.413    81303759.971         556.629          48.000    19582627.794    81303767.976         556.605          48.250  
R23  22721660.659   121545574.219        4263.738          40.125                                                                                                                                  
> 2023 09 10 11 31 16.0000000  0 10                     
R05  23927580.398   127906561.123       -3535.603          39.313    23927593.327    99482881.759       -2749.860          38.063    23927593.236    99482902.765       -2749.892          38.313  
R06  19541427.451   104276806.922       -1160.019          37.500                                                                                                                                  
R07  20129762.470   107756244.372        2339.676          49.750    20129770.556    83810457.026        1819.749          46.438    20129770.613    83810465.032        1819.752          46.500  
R08  23943571.517   128216758.175        3976.073          37.563    23943585.666    99724212.486        3092.472          37.125    23943585.089    99724216.506        3092.504          38.000  
R14  24090494.279   128415895.153       -2248.284          39.438    24090505.188    99879071.288       -1748.603          38.438    24090505.730    99879073.292       -1748.605          38.938  
R15  22599140.513   120763027.458         863.383          43.188    22599150.785    93926876.979         671.547          42.563    22599150.764    93926871.965         671.588          42.313  
R16  23326435.004   124605679.936        3763.596          40.250    23326448.390    96915617.329        2927.167          39.313    23326447.969    96915611.329        2927.173          39.188  
R21  20668171.623   110599531.099       -3183.582          47.813    20668180.807    86021879.010       -2476.103          46.063    20668181.345    86021882.994       -2476.125          46.188  
R22  19582487.443   104532656.676         714.109          50.375    19582493.587    81303204.166         555.471          47.938    19582493.905    81303212.165         555.439          48.313  
R23  22720863.294   121541311.317        4262.681          40.250                                                                                                                                  
> 2023 09 10 11 31 17.0000000  0 10                     
R05  23928241.689   127910096.682       -3535.447          39.438    23928254.441    99485631.633       -2749.749          38.000    23928254.643    99485652.656       -2750.143          38.563  
R06  19541644.622   104277967.436       -1160.591          37.688                                                                                                                                  
R07  20129325.470   107753904.935        2339.251          49.750    20129333.603    83808637.468        1819.480          46.438    20129333.539    83808645.472        1819.385          46.563  
R08  23942829.171   128212782.260        3975.885          37.563    23942842.684    99721120.108        3092.505          37.063    23942842.630    99721124.128        3092.198          37.813  
R14  24090916.172   128418143.657       -2248.912          40.250    24090927.154    99880820.131       -1748.991          38.563    24090927.628    99880822.135       -1749.166          38.813  
R15  22598979.300   120762164.630         862.456          43.125    22598989.326    93926205.890         670.827          42.563    22598989.334    93926200.881         670.662          42.438  
R16  23325730.233   124601916.645        3763.089          40.063    23325743.857    96912690.320        2926.961          39.125    23325743.353    96912684.339        2926.673          39.250  
R21  20668766.665   110602714.973       -3184.123          47.750    20668775.723    86024355.357       -2476.515          45.875    20668776.343    86024359.346       -2476.650          46.125  
R22  19582353.874   104531943.036         713.229          50.563    19582359.805    81302649.112         554.814          48.063    19582360.199    81302657.117         554.663          48.188  
R23  22720066.615   121537048.861        4262.368          40.438                                                                                                                                  
> 2023 09 10 11 31 18.0000000  0 10                     
R05  23928903.034   127913632.237       -3534.949          39.688    23928916.007    99488381.506       -2749.579          38.000    23928916.264    99488402.508       -2749.467          38.563  
R06  19541862.145   104279128.469       -1160.755          37.563                                                                                                                                  
R07  20128888.517   107751565.992        2339.204          49.750    20128896.739    83806818.294        1819.356          46.375    20128896.513    83806826.296        1819.319          46.375  
R08  23942086.800   128208806.485        3976.253          37.625    23942100.106    99718027.856        3092.739          37.000    23942100.220    99718031.869        3092.651          37.438  
R14  24091338.400   128420392.842       -2249.054          41.125    24091349.166    99882569.524       -1749.374          38.563    24091349.593    99882571.536       -1749.344          39.125  
R15  22598818.037   120761302.696         861.970          43.250    22598828.346    93925535.498         670.551          42.375    22598828.136    93925530.499         670.274          42.375  
R16  23325026.121   124598153.776        3763.150          40.063    23325039.272    96909763.658        2926.855          39.188    23325038.889    96909757.664        2926.809          39.000  
R21  20669361.687   110605899.460       -3184.289          47.688    20669370.613    86026832.174       -2476.695          45.688    20669371.329    86026836.160       -2476.705          46.063  
R22  19582220.458   104531230.310         712.790          50.563    19582226.452    81302094.772         554.421          47.938    19582226.663    81302102.778         554.354          48.250  
R23  22719270.056   121532786.784        4262.440          40.375                                                                                                                                  
> 2023 09 10 11 31 19.0000000  0 10                     
R05  23929564.298   127917168.158       -3535.493          39.875    23929577.612    99491131.673       -2749.884          38.250    23929577.724    99491152.678       -2749.934          38.125  
R06  19542079.983   104280290.393       -1161.849          37.375                                                                                                                                  
R07  20128451.751   107749227.941        2338.082          49.875    20128459.995    83804999.809        1818.528          46.188    20128459.676    83805007.815        1818.531          46.625  
R08  23941344.459   128204831.268        3975.544          37.563    23941357.409    99714936.037        3091.957          37.000    23941357.827    99714940.050        3091.847          37.750  
R14  24091761.227   128422643.077       -2250.298          41.375    24091771.393    99884319.702       -1750.171          38.938    24091771.884    99884321.708       -1750.361          39.250  
R15  22598656.955   120760442.034         860.545          43.563    22598667.254    93924866.088         669.353          42.438    22598667.162    93924861.084         669.263          42.125  
R16  23324321.772   124594391.730        3762.042          39.813    23324335.085    96906837.635        2926.170          39.375    23324334.636    96906831.646        2926.042          39.063  
R21  20669957.072   110609084.971       -3185.567          47.563    20669965.942    86029309.794       -2477.704          45.625    20669966.555    86029313.777       -2477.604          46.125  
R22  19582087.147   104530518.926         711.277          50.625    19582093.035    81301541.473         553.191          48.000    19582093.319    81301549.483         553.182          48.125  
R23  22718473.502   121528525.483        4261.462          40.375                                                                                                                                  
> 2023 09 10 11 31 20.0000000  0 10                     
R05  23930225.817   127920703.835       -3535.522          39.813    23930239.305    99493881.623       -2749.831          38.250    23930239.314    99493902.637       -2749.695          39.000  
R06  19542297.891   104281452.651       -1162.555          37.688                                                                                                                                  
R07  20128015.000   107746890.162        2337.511          49.938    20128023.124    83803181.532        1818.105          46.000    20128022.861    83803189.536        1818.196          46.438  
R08  23940602.283   128200855.986        3975.126          37.750    23940615.522    99711844.155        3091.670          36.938    23940615.377    99711848.141        3091.965          37.563  
R14  24092183.709   128424893.704       -2250.809          41.750    24092193.449    99886070.200       -1750.677          39.250    24092194.273    99886072.200       -1750.776          39.188  
R15  22598495.958   120759581.967         859.659          43.625    22598506.333    93924197.149         668.681          42.188    22598506.157    93924192.142         668.778          42.375  
R16  23323617.420   124590629.825        3761.691          39.688    23323630.817    96903911.734        2925.600          39.188    23323630.404    96903905.709        2926.060          39.125  
R21  20670552.584   110612270.887       -3186.224          47.500    20670561.301    86031787.724       -2478.122          45.500    20670561.867    86031791.703       -2478.038          45.938  
R22  19581954.134   104529808.238         710.244          50.688    19581959.906    81300988.714         552.422          48.000    19581960.105    81300996.711         552.546          48.188  
R23  22717676.838   121524264.344        4261.056          40.500                                                                                                                                  
> 2023 09 10 11 31 21.0000000  0 10                     
R05  23930887.282   127924238.912       -3534.946          39.875    23930900.850    99496631.124       -2749.411          38.063    23930900.488    99496652.131       -2749.361          38.750  
R06  19542516.079   104282614.807       -1162.424          37.625                                                                                                                                  
R07  20127578.382   107744552.301        2337.700          50.125    20127586.441    83801363.204        1818.200          45.938    20127586.037    83801371.204        1818.294          46.313  
R08  23939859.765   128196880.254        3975.826          37.375    23939873.002    99708751.936        3091.929          36.938    23939872.802    99708755.919        3092.289          37.313  
R14  24092606.261   128427144.395       -2250.914          41.750    24092616.223    99887820.736       -1750.750          39.813    24092616.730    99887822.736       -1750.737          39.938  
R15  22598334.775   120758722.195         859.313          43.625    22598345.277    93923528.448         668.322          42.438    22598345.295    93923523.426         668.498          42.188  
R16  23322913.356   124586867.704        3761.943          39.438    23322926.618    96900985.629        2925.883          39.438    23322926.141    96900979.615        2926.121          39.438  
R21  20671147.926   110615456.827       -3186.125          47.500    20671156.713    86034265.668       -2478.129          45.563    20671157.223    86034269.654       -2478.020          45.875  
R22  19581821.095   104529097.860         709.990          50.688    19581826.674    81300436.194         552.227          47.875    19581827.007    81300444.198         552.209          48.125  
R23  22716880.472   121520002.971        4261.289          40.375                                                                                                                                  
> 2023 09 10 11 31 22.0000000  0 10                     
R05  23931548.463   127927773.478       -3533.771          39.875    23931562.082    99499380.239       -2748.613          38.375    23931561.868    99499401.245       -2748.537          38.750  
R06  19542733.848   104283776.965       -1161.653          37.250                                                                                                                                  
R07  20127141.839   107742214.458        2338.309          50.188    20127149.660    83799544.878        1818.670          45.938    20127149.249    83799552.883        1818.589          46.375  
R08  23939116.660   128192904.200        3976.716          37.625    23939130.046    99705659.436        3092.906          37.250    23939130.276    99705663.432        3092.938          37.938  
R14  24093028.751   128429395.244       -2250.458          41.563    24093038.673    99889571.409       -1750.472          40.125    24093039.133    99889573.413       -1750.446          39.875  
R15  22598174.304   120757862.827         859.653          43.688    22598184.734    93922860.053         668.553          42.625    22598184.603    93922855.043         668.581          42.250  
R16  23322208.516   124583105.494        3762.723          39.625    23322222.487    96898059.479        2926.540          39.500    23322221.839    96898053.477        2926.416          39.188  
R21  20671743.179   110618642.869       -3185.658          47.375    20671752.087    86036743.696       -2477.726          45.438    20671752.557    86036747.686       -2477.743          45.938  
R22  19581688.108   104528387.903         710.178          50.688    19581693.724    81299884.003         552.368          47.750    19581693.949    81299892.005         552.324          48.125  
R23  22716083.833   121515741.492        4262.065          40.875                                                                                                                                  
> 2023 09 10 11 31 23.0000000  0 10                     
R05  23932210.046   127931307.905       -3534.422          39.938    23932223.517    99502129.237       -2749.124          38.375    23932222.984    99502150.238       -2749.029          38.250  
R06  19542951.994   104284939.495       -1162.831          37.375                                                                                                                                  
R07  20126705.226   107739876.961        2337.213          50.313    20126712.918    83797726.829        1817.796          45.813    20126712.483    83797734.833        1817.774          46.313  
R08  23938373.951   128188928.157        3975.798          37.688    23938387.846    99702566.968        3092.359          37.063    23938387.807    99702570.962        3092.350          37.313  
R14  24093451.400   128431646.604       -2251.784          40.875    24093461.194    99891322.464       -1751.415          40.500    24093461.795    99891324.463       -1751.306          39.813  
R15  22598013.480   120757004.204         858.220          43.938    22598024.087    93922192.232         667.520          42.563    22598023.884    93922187.239         667.373          42.375  
R16  23321504.040   124579343.560        3761.758          39.750    23321518.282    96895133.553        2925.726          39.625    23321517.871    96895127.541        2925.692          39.250  
R21  20672338.640   110621829.390       -3186.822          47.375    20672347.661    86039222.102       -2478.646          45.438    20672348.030    86039226.095       -2478.754          45.938  
R22  19581555.362   104527678.725         708.634          50.813    19581560.836    81299332.430         551.190          47.750    19581561.151    81299340.433         551.198          48.188  
R23  22715287.271   121511480.258        4261.051          40.688                                                                                                                                  
> 2023 09 10 11 31 24.0000000  0 10                     
R05  23932871.506   127934843.454       -3535.914          40.188    23932884.687    99504879.098       -2750.155          38.438    23932884.333    99504900.082       -2750.171          38.813  
R06  19543170.442   104286103.664       -1164.862          37.500                                                                                                                                  
R07  20126268.946   107737541.087        2335.202          50.375    20126276.506    83795910.030        1816.263          45.938    20126276.040    83795918.031        1816.328          46.313  
R08  23937632.290   128184953.391        3974.361          37.625    23937645.819    99699475.463        3091.037          37.125    23937645.545    99699479.460        3091.071          37.500  
R14  24093874.048   128433899.734       -2253.910          40.625    24093883.733    99893074.880       -1753.023          40.438    24093884.708    99893076.871       -1752.850          39.938  
R15  22597853.270   120756147.573         855.707          43.938    22597863.788    93921525.953         665.750          42.625    22597863.567    93921520.938         665.772          42.500  
R16  23320800.531   124575583.160        3759.847          39.688    23320814.339    96892208.794        2924.171          39.750    23320813.832    96892202.779        2924.379          39.250  
R21  20672934.497   110625017.654       -3188.984          47.500    20672943.509    86041701.860       -2480.293          45.375    20672943.731    86041705.842       -2480.284          45.875  
R22  19581422.897   104526971.572         706.237          50.750    19581428.333    81298782.425         549.318          47.813    19581428.617    81298790.413         549.459          48.063  
R23  22714490.906   121507220.561        4259.200          40.938                                                                                                                                  
> 2023 09 10 11 31 25.0000000  0 10                     
R05  23933533.212   127938379.629       -3536.016          40.250    23933545.624    99507629.455       -2750.259          38.375    23933545.883    99507650.448       -2750.289          39.000  
R06  19543388.721   104287268.924       -1165.362          37.375                                                                                                                                  
R07  20125832.843   107735206.338        2334.686          50.438    20125840.381    83794094.122        1815.830          45.813    20125839.873    83794102.121        1815.885          46.250  
R08  23936889.854   128180979.430        3974.106          37.563    23936903.845    99696384.608        3091.069          37.063    23936903.569    99696388.595        3090.843          37.438  
R14  24094296.700   128436154.105       -2254.625          40.313    24094306.830    99894828.263       -1753.497          40.375    24094307.764    99894830.279       -1753.426          39.625  
R15  22597693.228   120755292.403         854.948          44.125    22597703.239    93920860.836         664.871          42.438    22597703.555    93920855.823         664.954          42.563  
R16  23320096.888   124571823.757        3759.383          39.688    23320110.584    96889284.826        2923.875          39.875    23320109.936    96889278.807        2923.865          39.688  
R21  20673530.648   110628207.143       -3189.546          47.625    20673539.516    86044182.566       -2480.745          45.313    20673539.780    86044186.564       -2480.878          45.813  
R22  19581290.664   104526265.936         705.406          50.750    19581296.250    81298233.601         548.657          47.625    19581296.454    81298241.602         548.582          48.188  
R23  22713694.675   121502961.873        4258.677          41.000                                                                                                                                  
> 2023 09 10 11 31 26.0000000  0 10                     
R05  23934194.809   127941915.285       -3535.272          40.250    23934206.782    99510379.394       -2749.663          38.313    23934207.374    99510400.396       -2749.578          38.250  
R06  19543606.728   104288434.202       -1165.149          37.188                                                                                                                                  
R07  20125396.725   107732871.604        2334.856          50.375    20125404.380    83792278.218        1815.972          45.688    20125403.581    83792286.218        1816.107          46.063  
R08  23936147.720   128177005.129        3974.527          37.688    23936162.118    99693293.493        3091.233          37.313    23936161.167    99693297.488        3091.340          37.313  
R14  24094718.805   128438408.617       -2254.380          40.000    24094730.125    99896581.792       -1753.502          40.188    24094730.846    99896583.785       -1753.329          39.625  
R15  22597533.237   120754437.603         854.654          44.125    22597542.994    93920195.981         664.831          42.438    22597543.600    93920190.966         664.945          42.875  
R16  23319393.141   124568064.252        3759.902          39.625    23319406.426    96886360.780        2924.052          39.875    23319406.093    96886354.760        2924.271          39.750  
R21  20674126.757   110631396.754       -3189.526          47.563    20674135.699    86046663.371       -2480.783          45.313    20674135.851    86046667.368       -2480.671          45.813  
R22  19581158.514   104525560.718         705.114          50.625    19581164.261    81297685.096         548.416          47.750    19581164.299    81297693.090         548.508          48.250  
R23  22712898.294   121498703.091        4258.944          41.125                                                                                                                                  
> 2023 09 10 11 31 27.0000000  0 10                     
R05  23934856.497   127945450.742       -3535.704          40.250    23934868.260    99513129.202       -2750.094          38.250    23934868.682    99513150.202       -2749.917          38.625  
R06  19543825.190   104289599.787       -1166.047          37.250                                                                                                                                  
R07  20124960.554   107730537.166        2333.968          50.438    20124968.314    83790462.540        1815.310          45.625    20124967.522    83790470.551        1815.217          46.125  
R08  23935406.046   128173030.791        3974.059          37.938    23935420.071    99690202.353        3090.865          37.250    23935419.021    99690206.337        3090.767          38.063  
R14  24095141.713   128440663.593       -2255.565          40.000    24095152.964    99898335.637       -1754.129          39.875    24095153.692    99898337.643       -1754.352          39.438  
R15  22597373.467   120753583.439         853.460          44.250    22597383.408    93919531.646         663.878          42.313    22597383.793    93919526.635         663.730          42.625  
R16  23318689.572   124564304.975        3758.914          39.438    23318702.694    96883436.900        2923.521          40.000    23318702.569    96883430.889        2923.411          39.813  
R21  20674722.906   110634586.780       -3190.510          47.625    20674731.945    86049144.502       -2481.572          45.375    20674731.906    86049148.500       -2481.724          45.750  
R22  19581026.406   104524856.201         703.894          50.625    19581032.358    81297137.145         547.397          47.688    19581032.252    81297145.152         547.335          48.125  
R23  22712102.449   121494444.501        4258.104          41.000                                                                                                                                  
> 2023 09 10 11 31 28.0000000  0 10                     
R05  23935517.816   127948986.276       -3535.441          40.250    23935529.714    99515879.059       -2749.681          38.250    23935529.937    99515900.041       -2749.682          38.813  
R06  19544043.200   104290766.008       -1166.350          37.375                                                                                                                                  
R07  20124524.585   107728203.311        2333.686          50.438    20124532.359    83788647.331        1815.049          45.563    20124531.463    83788655.326        1815.020          46.000  
R08  23934664.309   128169056.721        3974.103          38.250    23934677.786    99687111.392        3090.988          37.625    23934676.982    99687115.378        3091.100          38.188  
R14  24095564.581   128442919.294       -2255.886          40.063    24095576.047    99900090.079       -1754.445          39.750    24095576.591    99900092.068       -1754.554          39.188  
R15  22597213.950   120752730.256         852.869          44.250    22597223.726    93918868.076         663.232          42.250    22597224.138    93918863.057         663.279          42.563  
R16  23317985.990   124560546.206        3758.549          39.438    23317998.934    96880513.414        2923.267          40.313    23317999.080    96880507.392        2923.375          40.313  
R21  20675319.220   110637777.531       -3191.051          47.688    20675328.053    86051626.189       -2481.838          45.250    20675328.183    86051630.175       -2481.817          45.688  
R22  19580894.619   104524152.715         703.059          50.625    19580900.552    81296589.981         546.821          47.625    19580900.487    81296597.983         546.820          47.938  
R23  22711306.366   121490186.378        4258.204          41.000                                                                                                                                  
> 2023 09 10 11 31 29.0000000  0 10                     
R05  23936179.731   127952521.344       -3534.795          40.500    23936191.228    99518628.545       -2749.250          38.500    23936191.192    99518649.541       -2749.125          38.875  
R06  19544261.778   104291932.268       -1166.285          37.438                                                                                                                                  
R07  20124088.602   107725869.514        2333.835          50.500    20124096.389    83786832.143        1815.299          45.625    20124095.511    83786840.145        1815.258          46.000  
R08  23933921.911   128165082.333        3974.592          37.875    23933935.466    99684020.195        3091.338          38.000    23933934.832    99684024.189        3091.406          38.188  
R14  24095987.508   128445175.247       -2255.944          40.438    24095999.023    99901844.720       -1754.793          39.375    24095999.584    99901846.710       -1754.783          39.000  
R15  22597054.612   120751877.529         852.566          44.000    22597064.085    93918204.833         663.153          42.375    22597064.524    93918199.827         663.121          42.500  
R16  23317282.135   124556787.360        3758.958          39.375    23317295.351    96877589.879        2923.715          40.313    23317295.595    96877583.870        2923.617          40.063  
R21  20675915.406   110640968.435       -3190.965          47.688    20675924.145    86054108.005       -2481.855          45.250    20675924.411    86054112.001       -2481.773          45.750  
R22  19580762.940   104523449.687         702.786          50.625    19580769.104    81296043.188         546.665          47.688    19580768.762    81296051.190         546.630          48.125  
R23  22710509.964   121485928.216        4258.358          41.125                                                                                                                                  
> 2023 09 10 11 31 30.0000000  0 10                     
R05  23936841.066   127956056.242       -3534.980          40.563    23936852.726    99521377.911       -2749.383          38.438    23936852.388    99521398.896       -2749.497          38.688  
R06  19544480.649   104293098.923       -1167.030          37.250                                                                                                                                  
R07  20123652.715   107723536.114        2332.987          50.500    20123660.457    83785017.285        1814.497          45.625    20123659.613    83785025.280        1814.558          45.938  
R08  23933179.304   128161107.969        3973.963          37.938    23933193.454    99680929.039        3090.975          38.125    23933192.730    99680933.035        3090.905          38.625  
R14  24096411.043   128447431.741       -2256.998          40.938    24096422.338    99903599.772       -1755.396          39.250    24096422.492    99903601.768       -1755.529          38.313  
R15  22596895.364   120751025.577         851.465          43.875    22596905.237    93917542.196         662.195          42.438    22596905.093    93917537.186         662.172          42.813  
R16  23316578.133   124553028.791        3758.338          39.438    23316591.978    96874666.570        2923.142          40.625    23316592.106    96874660.558        2922.975          40.313  
R21  20676511.749   110644159.850       -3191.858          47.813    20676520.445    86056590.208       -2482.566          45.313    20676520.742    86056594.205       -2482.581          45.750  
R22  19580631.338   104522747.488         701.617          50.688    19580637.562    81295497.024         545.702          47.500    19580637.189    81295505.027         545.731          48.313  
R23  22709713.658   121481670.299        4257.672          41.000                                                                                                                                  
> 2023 09 10 11 31 31.0000000  0 10                     
R05  23937502.452   127959591.517       -3535.493          40.438    23937514.063    99524127.558       -2749.861          38.375    23937513.871    99524148.551       -2749.744          39.125  
R06  19544699.578   104294266.472       -1168.035          37.375                                                                                                                                  
R07  20123216.825   107721203.600        2332.104          50.500    20123224.882    83783203.103        1813.869          45.688    20123223.858    83783211.107        1813.820          46.188  
R08  23932437.661   128157134.106        3973.610          37.875    23932451.396    99677838.296        3090.515          38.625    23932450.695    99677842.276        3090.533          39.250  
R14  24096834.824   128449689.281       -2258.114          41.438    24096845.698    99905355.670       -1756.281          38.875    24096845.646    99905357.650       -1756.137          38.063  
R15  22596736.320   120750174.854         850.105          43.813    22596746.280    93916880.538         661.177          42.438    22596745.903    93916875.524         661.169          42.625  
R16  23315874.284   124549271.044        3757.340          39.250    23315888.713    96871743.883        2922.348          40.563    23315888.738    96871737.866        2922.355          40.250  
R21  20677108.408   110647352.274       -3192.880          47.750    20677117.122    86059073.210       -2483.390          45.250    20677117.283    86059077.194       -2483.324          45.750  
R22  19580500.004   104522046.595         700.209          50.688    19580506.119    81294951.882         544.658          47.563    19580505.861    81294959.885         544.607          48.125  
R23  22708918.068   121477413.143        4256.713          41.063                                                                                                                                  
> 2023 09 10 11 31 32.0000000  0 10                     
R05  23938163.417   127963127.129       -3535.682          40.563    23938175.016    99526877.478       -2750.046          38.250    23938175.175    99526898.485       -2749.885          38.688  
R06  19544918.643   104295434.893       -1168.694          37.563                                                                                                                                  
R07  20122781.114   107718871.951        2331.343          50.438    20122789.147    83781389.604        1813.228          45.813    20122788.321    83781397.609        1813.286          46.063  
R08  23931695.549   128153160.804        3973.149          37.688    23931709.404    99674747.942        3090.216          38.875    23931709.019    99674751.935        3090.149          39.625  
R14  24097258.589   128451947.798       -2258.776          41.438    24097268.801    99907112.294       -1756.846          38.688    24097268.921    99907114.289       -1757.039          38.250  
R15  22596577.347   120749325.356         849.064          43.563    22596587.188    93916219.816         660.320          42.188    22596586.914    93916214.809         660.234          42.500  
R16  23315171.243   124545514.077        3756.603          39.438    23315185.384    96868821.783        2921.909          40.500    23315185.642    96868815.790        2921.759          40.750  
R21  20677705.153   110650545.700       -3193.820          47.813    20677713.831    86061556.984       -2484.137          45.250    20677714.026    86061560.978       -2484.123          45.625  
R22  19580368.966   104521346.979         699.047          50.688    19580375.092    81294407.745         543.734          47.500    19580374.763    81294415.757         543.663          48.063  
R23  22708122.668   121473156.752        4256.083          41.063                                                                                                                                  
> 2023 09 10 11 31 33.0000000  0 10                     
R05  23938825.058   127966662.923       -3535.607          40.438    23938836.559    99529627.531       -2750.082          38.063    23938836.702    99529648.545       -2750.065          38.875  
R06  19545137.910   104296604.015       -1169.224          37.188                                                                                                                                  
R07  20122345.684   107716540.995        2330.815          50.438    20122353.503    83779576.638        1812.885          45.875    20122353.014    83779584.640        1812.756          46.250  
R08  23930953.498   128149187.838        3973.099          37.500    23930967.442    99671657.873        3089.997          39.250    23930967.141    99671661.857        3089.915          39.688  
R14  24097682.546   128454207.105       -2259.410          41.438    24097692.250    99908869.540       -1757.439          38.750    24097692.571    99908871.543       -1757.460          38.438  
R15  22596418.190   120748476.908         848.157          43.500    22596428.276    93915559.908         659.753          42.250    22596428.105    93915554.919         659.487          42.375  
R16  23314468.065   124541757.657        3756.308          39.438    23314482.198    96865900.141        2921.578          40.563    23314482.498    96865894.139        2921.465          40.375  
R21  20678302.127   110653739.922       -3194.360          47.813    20678310.871    86064041.370       -2484.426          45.250    20678311.041    86064045.369       -2484.561          45.563  
R22  19580238.085   104520648.449         698.225          50.688    19580244.191    81293864.444         543.108          47.375    19580243.851    81293872.451         543.035          48.063  
R23  22707327.082   121468900.901        4255.845          41.188                                                                                                                                  
> 2023 09 10 11 31 34.0000000  0 10                     
R05  23939486.516   127970198.449       -3535.268          40.500    23939498.126    99532377.370       -2749.716          38.188    23939498.059    99532398.376       -2749.573          38.563  
R06  19545356.829   104297773.369       -1169.293          37.375                                                                                                                                  
R07  20121910.318   107714210.270        2330.735          50.500    20121918.290    83777763.862        1812.759          46.125    20121917.688    83777771.853        1812.788          46.188  
R08  23930211.463   128145214.785        3973.251          37.688    23930225.488    99668567.705        3090.273          39.375    23930225.343    99668571.704        3090.193          39.813  
R14  24098106.650   128456466.780       -2259.677          41.375    24098116.029    99910627.077       -1757.663          39.188    24098116.481    99910629.079       -1757.405          38.688  
R15  22596259.237   120747629.091         847.607          43.438    22596269.834    93914900.491         659.302          42.375    22596269.492    93914895.477         659.323          42.500  
R16  23313764.742   124538001.355        3756.412          39.438    23313778.765    96862978.588        2921.591          40.500    23313779.295    96862972.577        2921.558          40.438  
R21  20678899.137   110656934.503       -3194.610          47.875    20678907.702    86066526.036       -2484.733          45.313    20678908.034    86066530.026       -2484.658          45.688  
R22  19580107.287   104519950.565         697.629          50.750    19580113.280    81293321.637         542.670          47.313    19580113.222    81293329.647         542.684          47.938  
R23  22706531.599   121464645.170        4255.726          41.000                                                                                                                                  
> 2023 09 10 11 31 35.0000000  0 10                     
R05  23940147.724   127973733.386       -3534.583          40.438    23940158.978    99535126.771       -2749.100          37.750    23940159.323    99535147.776       -2749.162          38.688  
R06  19545576.090   104298942.638       -1169.037          37.250                                                                                                                                  
R07  20121475.000   107711879.436        2331.009          50.500    20121482.797    83775950.986        1813.019          46.063    20121482.286    83775958.975        1813.122          46.125  
R08  23929469.327   128141241.312        3973.932          37.500    23929483.375    99665477.232        3090.717          39.438    23929483.304    99665481.217        3090.864          39.938  
R14  24098530.825   128458726.559       -2259.622          40.813    24098540.430    99912384.687       -1757.712          39.688    24098540.682    99912386.667       -1757.319          38.875  
R15  22596100.500   120746781.559         847.618          43.563    22596110.855    93914241.316         659.163          42.438    22596110.825    93914236.300         659.198          42.250  
R16  23313061.897   124534244.840        3756.658          39.375    23313075.742    96860056.849        2921.972          40.563    23313076.065    96860050.844        2921.987          40.563  
R21  20679496.247   110660129.077       -3194.443          48.000    20679504.771    86069010.705       -2484.542          45.125    20679505.000    86069014.693       -2484.439          45.375  
R22  19579976.575   104519253.000         697.547          50.750    19579982.481    81292779.092         542.573          47.250    19579982.557    81292787.094         542.573          48.125  
R23  22705736.126   121460389.253        4256.081          41.063                                                                                                                                  
> 2023 09 10 11 31 36.0000000  0 10                     
R05  23940808.789   127977267.837       -3534.530          40.375    23940820.362    99537875.791       -2749.052          37.688    23940820.506    99537896.797       -2749.240          38.375  
R06  19545795.246   104300111.941       -1169.907          37.188                                                                                                                                  
R07  20121039.679   107709548.652        2330.364          50.500    20121047.596    83774138.158        1812.512          46.188    20121046.889    83774146.147        1812.560          46.313  
R08  23928726.790   128137267.490        3973.651          37.313    23928741.280    99662386.503        3090.577          39.500    23928741.239    99662390.489        3090.653          40.063  
R14  24098955.008   128460986.553       -2260.524          40.375    24098964.730    99914142.444       -1758.280          39.563    24098964.771    99914144.460       -1757.979          39.063  
R15  22595941.590   120745934.472         846.539          43.625    22595952.192    93913582.459         658.398          42.625    22595952.333    93913577.454         658.431          42.688  
R16  23312358.862   124530488.261        3756.361          39.563    23312372.372    96857135.079        2921.515          40.563    23312372.750    96857129.079        2921.530          40.688  
R21  20680093.151   110663323.786       -3195.174          47.938    20680101.946    86071495.480       -2485.163          45.188    20680102.042    86071499.463       -2485.110          45.438  
R22  19579846.021   104518555.889         696.469          50.750    19579851.887    81292236.893         541.676          47.188    19579852.003    81292244.893         541.719          48.063  
R23  22704940.657   121456133.265        4255.620          41.125                                                                                                                                  
> 2023 09 10 11 31 37.0000000  0 10                     
R05  23941470.262   127980802.725       -3534.885          40.500    23941481.873    99540625.129       -2749.283          37.813    23941481.765    99540646.135       -2749.484          37.875  
R06  19546014.360   104301282.180       -1170.600          37.313                                                                                                                                  
R07  20120604.460   107707218.815        2329.586          50.500    20120612.385    83772326.069        1811.871          46.250    20120611.648    83772334.064        1811.787          46.250  
R08  23927984.690   128133294.247        3973.116          36.813    23927999.354    99659296.210        3090.217          39.938    23927999.379    99659300.197        3090.206          40.063  
R14  24099379.129   128463247.649       -2261.409          39.813    24099389.431    99915901.082       -1758.898          39.563    24099389.279    99915903.095       -1759.023          39.188  
R15  22595783.398   120745088.669         845.375          43.625    22595793.924    93912924.623         657.422          42.750    22595794.149    93912919.607         657.493          42.813  
R16  23311655.721   124526732.581        3755.379          39.688    23311669.502    96854214.011        2920.866          40.625    23311669.655    96854208.001        2920.829          40.813  
R21  20680690.450   110666519.546       -3196.157          48.063    20680699.462    86073981.068       -2485.898          45.250    20680699.205    86073985.057       -2485.981          45.563  
R22  19579715.692   104517860.148         695.199          50.750    19579721.608    81291695.758         540.793          47.188    19579721.646    81291703.759         540.739          48.000  
R23  22704145.574   121451878.136        4254.907          41.188                                                                                                                                  
> 2023 09 10 11 31 38.0000000  0 10                     
R05  23942131.450   127984337.923       -3535.248          40.313    23942142.931    99543374.738       -2749.630          37.875    23942143.270    99543395.737       -2749.710          38.438  
R06  19546233.969   104302453.282       -1171.351          37.313                                                                                                                                  
R07  20120169.374   107704889.845        2328.692          50.438    20120177.289    83770514.646        1811.207          46.250    20120176.523    83770522.646        1811.176          46.125  
R08  23927242.654   128129321.487        3972.614          36.500    23927257.375    99656206.293        3089.823          40.000    23927257.563    99656210.292        3089.737          40.313  
R14  24099803.147   128465509.759       -2262.499          39.000    24099813.963    99917660.487       -1759.659          39.938    24099813.958    99917662.488       -1759.671          40.188  
R15  22595625.516   120744244.092         844.112          43.563    22595636.203    93912267.729         656.473          42.875    22595636.104    93912262.730         656.423          42.688  
R16  23310952.573   124522977.668        3754.637          39.750    23310965.848    96851293.520        2920.404          40.563    23310966.724    96851287.522        2920.259          40.750  
R21  20681287.842   110669716.310       -3197.160          48.063    20681296.736    86076467.434       -2486.675          45.188    20681296.578    86076471.432       -2486.737          45.313  
R22  19579585.491   104517165.669         693.989          50.750    19579591.486    81291155.618         539.744          47.250    19579591.545    81291163.616         539.732          48.000  
R23  22703350.470   121447623.749        4254.214          41.250                                                                                                                                  
> 2023 09 10 11 31 39.0000000  0 10                     
R05  23942792.366   127987873.050       -3535.336          40.375    23942804.422    99546124.259       -2749.752          37.938    23942804.596    99546145.270       -2749.596          38.438  
R06  19546453.173   104303624.854       -1172.137          37.188                                                                                                                                  
R07  20119734.586   107702561.315        2327.959          50.375    20119742.484    83768703.567        1810.676          46.188    20119741.564    83768711.563        1810.644          46.188  
R08  23926501.112   128125348.819        3972.129          36.250    23926515.662    99653116.443        3089.488          40.313    23926515.797    99653120.435        3089.732          40.313  
R14  24100227.265   128467772.394       -2263.147          38.625    24100238.579    99919420.321       -1760.329          40.250    24100238.830    99919422.326       -1760.339          39.813  
R15  22595467.516   120743400.337         843.033          43.813    22595478.133    93911611.467         655.747          42.938    22595478.225    93911606.466         655.682          42.625  
R16  23310249.941   124519223.070        3754.230          39.375    23310263.074    96848373.305        2919.747          40.500    23310263.888    96848367.282        2919.936          40.375  
R21  20681885.308   110672913.649       -3197.938          48.000    20681894.192    86078954.250       -2487.206          45.188    20681894.085    86078958.237       -2487.189          45.563  
R22  19579455.592   104516472.050         692.864          50.813    19579461.581    81290616.126         538.909          47.250    19579461.666    81290624.131         538.937          47.938  
R23  22702555.095   121443369.673        4253.596          41.063                                                                                                                                  
> 2023 09 10 11 31 40.0000000  0 10                     
R05  23943453.666   127991408.076       -3535.303          40.250    23943465.710    99548873.744       -2749.707          37.875    23943465.953    99548894.724       -2749.344          38.625  
R06  19546673.159   104304796.800       -1172.543          37.250                                                                                                                                  
R07  20119299.665   107700233.142        2327.753          50.375    20119307.496    83766892.771        1810.462          46.250    20119306.721    83766900.765        1810.437          46.438  
R08  23925759.894   128121376.186        3972.461          35.688    23925774.036    99650026.652        3089.688          40.500    23925773.910    99650030.644        3089.579          40.438  
R14  24100651.195   128470035.580       -2263.743          38.625    24100662.876    99921180.566       -1760.726          40.438    24100663.683    99921182.578       -1760.687          39.938  
R15  22595309.584   120742557.331         842.417          43.563    22595320.441    93910955.815         655.122          43.000    22595320.394    93910950.800         655.212          42.625  
R16  23309547.771   124515468.751        3753.863          39.250    23309560.466    96845453.282        2919.755          40.438    23309561.101    96845447.278        2919.824          40.750  
R21  20682482.897   110676111.474       -3198.280          47.938    20682491.762    86081441.440       -2487.460          45.313    20682491.633    86081445.439       -2487.558          45.438  
R22  19579325.780   104515779.224         692.177          50.813    19579331.869    81290077.267         538.370          47.438    19579331.842    81290085.272         538.348          48.125  
R23  22701759.923   121439115.908        4253.343          41.063                                                                                                                                  
> 2023 09 10 11 31 41.0000000  0 10                     
R05  23944114.875   127994943.179       -3535.025          40.250    23944127.563    99551623.241       -2749.451          37.938    23944127.181    99551644.272       -2749.647          38.688  
R06  19546892.643   104305969.341       -1172.818          37.188                                                                                                                                  
R07  20118864.794   107697905.561        2327.362          50.375    20118872.456    83765082.437        1810.102          46.250    20118871.954    83765090.430        1810.178          46.313  
R08  23925018.315   128117403.862        3972.428          35.250    23925032.464    99646937.069        3089.601          40.563    23925032.081    99646941.067        3089.420          40.625  
R14  24101075.838   128472299.509       -2264.269          39.000    24101087.676    99922941.399       -1761.181          40.438    24101088.541    99922943.417       -1761.187          39.750  
R15  22595152.126   120741715.305         841.665          43.625    22595162.933    93910300.898         654.612          42.875    22595162.868    93910295.898         654.541          42.563  
R16  23308845.188   124511714.903        3753.680          39.063    23308857.900    96842533.635        2919.551          40.688    23308858.448    96842527.633        2919.450          40.813  
R21  20683080.711   110679309.976       -3198.738          47.938    20683089.175    86083929.165       -2487.918          45.125    20683089.346    86083933.166       -2488.020          45.438  
R22  19579196.184   104515087.403         691.408          50.688    19579202.313    81289539.185         537.729          47.438    19579202.187    81289547.191         537.742          48.063  
R23  22700964.607   121434862.584        4253.200          41.063                                                                                                                                  
> 2023 09 10 11 31 42.0000000  0 10                     
R05  23944775.809   127998478.131       -3534.979          40.063    23944788.990    99554372.653       -2749.363          37.938    23944788.342    99554393.648       -2749.329          38.250  
R06  19547112.874   104307142.239       -1172.947          37.125                                                                                                                                  
R07  20118429.986   107695578.377        2326.870          50.250    20118437.747    83763272.399        1809.774          46.125    20118437.178    83763280.383        1809.938          46.500  
R08  23924276.259   128113431.580        3972.238          35.000    23924290.501    99643847.529        3089.332          40.813    23924290.360    99643851.503        3089.580          40.563  
R14  24101500.512   128474563.916       -2264.833          39.813    24101512.480    99924702.605       -1761.467          40.438    24101513.340    99924704.599       -1761.424          39.688  
R15  22594994.936   120740874.000         840.845          43.688    22595005.598    93909646.550         653.844          42.938    22595005.355    93909641.531         654.079          42.500  
R16  23308142.665   124507961.358        3753.159          39.313    23308155.330    96839614.210        2919.151          40.563    23308155.755    96839608.205        2919.193          40.625  
R21  20683678.372   110682508.940       -3199.368          47.875    20683687.084    86086417.241       -2488.417          45.188    20683687.112    86086421.229       -2488.244          45.250  
R22  19579066.688   104514396.359         690.530          50.563    19579072.886    81289001.705         537.124          47.500    19579072.742    81289009.697         537.179          48.063  
R23  22700169.182   121430609.525        4252.747          41.063                                                                                                                                  
> 2023 09 10 11 31 43.0000000  0 10                     
R05  23945436.208   128002012.922       -3535.339          40.000    23945450.036    99557121.936       -2749.590          37.813    23945449.587    99557142.924       -2749.439          38.375  
R06  19547332.639   104308315.550       -1174.161          37.188                                                                                                                                  
R07  20117995.143   107693251.589        2326.010          50.125    20118002.973    83761462.672        1809.235          46.125    20118002.478    83761470.662        1809.269          46.500  
R08  23923533.813   128109459.312        3971.672          34.188    23923548.739    99640757.994        3089.187          40.938    23923548.759    99640761.978        3089.280          40.563  
R14  24101925.466   128476828.832       -2265.688          40.375    24101937.412    99926464.213       -1762.172          40.250    24101938.055    99926466.202       -1761.895          39.250  
R15  22594837.740   120740033.440         839.578          43.750    22594848.262    93908992.777         653.178          42.688    22594847.927    93908987.771         653.235          42.375  
R16  23307440.417   124504208.077        3752.603          39.313    23307452.778    96836695.014        2918.652          40.625    23307453.053    96836689.019        2918.722          40.313  
R21  20684276.446   110685708.420       -3200.281          47.750    20684284.981    86088905.723       -2489.149          45.063    20684284.977    86088909.715       -2488.974          45.438  
R22  19578937.371   104513706.109         689.318          50.500    19578943.531    81288464.855         536.076          47.563    19578943.486    81288472.848         536.205          48.125  
R23  22699373.962   121426356.732        4252.105          40.813                                                                                                                                  
> 2023 09 10 11 31 44.0000000  0 10                     
R05  23946097.790   128005547.595       -3534.937          39.688    23946111.141    99559871.135       -2749.507          38.000    23946110.820    99559892.127       -2749.497          38.625  
R06  19547552.412   104309489.182       -1173.999          37.125                                                                                                                                  
R07  20117560.403   107690925.148        2325.872          50.000    20117568.237    83759653.230        1809.019          46.000    20117567.886    83759661.224        1808.923          46.500  
R08  23922792.318   128105487.042        3971.784          33.688    23922807.294    99637668.470        3089.216          40.938    23922807.020    99637672.469        3089.240          40.813  
R14  24102350.704   128479094.274       -2266.179          40.813    24102362.203    99928226.230       -1762.542          40.313    24102362.904    99928228.229       -1762.654          39.688  
R15  22594680.752   120739193.619         839.117          43.688    22594690.912    93908339.585         652.563          42.625    22594690.692    93908334.587         652.542          42.500  
R16  23306737.636   124500455.116        3752.367          39.313    23306750.321    96833776.040        2918.588          40.563    23306750.423    96833770.051        2918.510          40.500  
R21  20684874.432   110688908.408       -3200.567          47.750    20684883.297    86091394.599       -2489.327          45.063    20684882.980    86091398.602       -2489.431          45.500  
R22  19578808.061   104513016.642         688.697          50.500    19578814.460    81287928.602         535.643          47.563    19578814.292    81287936.599         535.612          47.813  
R23  22698579.129   121422104.212        4252.006          40.750                                                                                                                                  
> 2023 09 10 11 31 45.0000000  0 10                     
R05  23946759.013   128009082.308       -3534.197          39.813    23946771.988    99562620.342       -2748.851          38.250    23946772.124    99562641.337       -2748.824          38.313  
R06  19547771.848   104310663.420       -1173.904          36.938                                                                                                                                  
R07  20117125.907   107688599.263        2326.238          49.875    20117133.689    83757844.208        1809.324          46.063    20117133.418    83757852.210        1809.198          46.688  
R08  23922049.952   128101514.949        3972.716          34.000    23922065.734    99634579.086        3089.855          40.938    23922065.222    99634583.096        3089.756          40.750  
R14  24102776.176   128481360.415       -2265.738          41.000    24102787.488    99929988.790       -1762.410          40.000    24102787.838    99929990.793       -1762.403          39.250  
R15  22594524.258   120738354.740         839.049          43.875    22594533.806    93907687.126         652.509          42.688    22594533.581    93907682.121         652.540          42.438  
R16  23306034.856   124496702.567        3752.959          39.250    23306047.923    96830857.407        2918.983          40.438    23306047.917    96830851.434        2918.742          40.438  
R21  20685472.429   110692109.058       -3200.351          47.750    20685481.312    86093883.988       -2489.207          45.063    20685481.051    86093887.994       -2489.252          45.438  
R22  19578679.031   104512328.148         688.603          50.500    19578685.422    81287393.096         535.630          47.688    19578685.339    81287401.107         535.567          47.938  
R23  22697784.071   121417852.107        4252.563          40.563                                                                                                                                  
> 2023 09 10 11 31 46.0000000  0 10                     
R05  23947420.139   128012617.281       -3535.341          39.375    23947433.396    99565369.769       -2749.607          38.250    23947433.445    99565390.770       -2749.725          38.438  
R06  19547992.093   104311838.431       -1175.756          36.938                                                                                                                                  
R07  20116691.446   107686274.157        2324.512          49.813    20116699.449    83756035.801        1807.918          46.188    20116699.143    83756043.782        1807.960          46.438  
R08  23921308.185   128097543.303        3971.150          33.313    23921323.656    99631490.048        3088.645          40.750    23921323.555    99631494.047        3088.715          40.500  
R14  24103201.625   128483627.477       -2267.664          41.063    24103212.673    99931752.078       -1763.829          39.625    24103212.901    99931754.081       -1763.919          39.375  
R15  22594367.611   120737517.007         836.934          43.750    22594377.259    93907035.567         650.930          42.563    22594376.717    93907030.552         650.930          42.625  
R16  23305332.660   124492950.691        3751.197          39.313    23305345.387    96827939.292        2917.783          40.375    23305345.439    96827933.293        2917.752          40.375  
R21  20686070.609   110695310.606       -3202.219          47.688    20686079.449    86096374.077       -2490.635          45.000    20686079.319    86096378.073       -2490.617          45.375  
R22  19578550.164   104511640.857         686.423          50.438    19578556.648    81286858.540         533.963          47.750    19578556.588    81286866.541         533.940          48.063  
R23  22696989.123   121413600.655        4250.951          40.625                                                                                                                                  
> 2023 09 10 11 31 47.0000000  0 10                     
R05  23948081.880   128016152.587       -3535.497          39.188    23948094.963    99568119.427       -2749.711          38.063    23948094.893    99568140.433       -2749.897          38.813  
R06  19548212.580   104313014.263       -1176.403          37.063                                                                                                                                  
R07  20116257.125   107683949.882        2323.818          49.938    20116265.196    83754228.028        1807.422          46.250    20116265.025    83754236.015        1807.379          46.563  
R08  23920565.916   128093572.145        3971.048          34.063    23920582.085    99628401.379        3088.450          40.563    23920581.865    99628405.389        3088.389          40.563  
R14  24103627.732   128485895.512       -2268.542          40.625    24103637.862    99933516.092       -1764.434          39.375    24103638.019    99933518.084       -1764.522          38.375  
R15  22594210.815   120736680.454         835.977          43.625    22594220.482    93906384.913         650.236          42.500    22594220.219    93906379.908         650.111          42.438  
R16  23304630.066   124489199.546        3750.697          39.188    23304642.743    96825021.738        2917.340          40.125    23304643.081    96825015.746        2917.184          40.563  
R21  20686669.072   110698513.083       -3202.989          47.625    20686677.916    86098864.895       -2491.178          45.188    20686677.818    86098868.887       -2491.180          45.563  
R22  19578421.596   104510954.781         685.460          50.375    19578428.204    81286324.931         533.132          47.875    19578428.078    81286332.932         533.067          48.000  
R23  22696194.400   121409349.942        4250.406          40.688                                                                                                                                  
> 2023 09 10 11 31 48.0000000  0 10                     
R05  23948743.166   128019687.588       -3533.985          39.125    23948756.509    99570868.891       -2748.779          38.000    23948756.120    99570889.879       -2748.662          38.125  
R06  19548433.255   104314190.353       -1175.259          36.938                                                                                                                                  
R07  20115823.022   107681625.859        2324.809          49.875    20115831.102    83752420.458        1808.189          46.313    20115830.960    83752428.442        1808.121          46.625  
R08  23919824.349   128089600.961        3972.209          34.750    23919840.493    99625312.697        3089.426          40.688    23919840.362    99625316.695        3089.346          40.563  
R14  24104053.374   128488163.906       -2267.830          40.250    24104063.287    99935280.402       -1763.763          39.125    24104063.185    99935282.392       -1763.740          38.875  
R15  22594054.338   120735844.542         836.478          43.625    22594064.035    93905734.758         650.728          42.563    22594063.806    93905729.750         650.604          42.563  
R16  23303927.593   124485448.520        3751.836          39.750    23303940.322    96822104.284        2918.149          39.813    23303940.759    96822098.295        2918.078          40.000  
R21  20687267.676   110701715.902       -3202.083          47.625    20687276.581    86101355.972       -2490.560          45.188    20687276.425    86101359.967       -2490.539          45.438  
R22  19578293.168   104510269.380         686.064          50.375    19578299.807    81285791.846         533.407          48.000    19578299.711    81285799.837         533.590          48.125  
R23  22695400.200   121405099.335        4251.414          40.813                                                                                                                                  
> 2023 09 10 11 31 49.0000000  0 10                     
R05  23949404.246   128023221.980       -3534.105          38.938    23949418.335    99573617.826       -2748.712          38.125    23949417.169    99573638.836       -2748.774          38.250  
R06  19548654.559   104315366.349       -1175.874          36.938                                                                                                                                  
R07  20115388.840   107679301.745        2324.198          49.813    20115397.068    83750612.816        1807.761          46.375    20115396.931    83750620.807        1807.598          46.688  
R08  23919082.620   128085629.385        3971.639          34.938    23919098.843    99622223.651        3089.182          40.563    23919098.587    99622227.665        3089.303          40.438  
R14  24104478.858   128490432.328       -2268.360          39.188    24104488.351    99937044.729       -1764.168          39.188    24104488.463    99937046.749       -1764.436          39.000  
R15  22593898.002   120735008.904         835.540          43.625    22593907.481    93905084.816         649.820          42.375    22593907.335    93905079.804         649.769          42.625  
R16  23303225.269   124481697.293        3751.468          39.500    23303237.994    96819186.672        2917.738          39.875    23303238.535    96819180.685        2917.534          40.250  
R21  20687866.047   110704918.723       -3202.719          47.750    20687874.989    86103847.055       -2491.014          45.250    20687874.934    86103851.051       -2491.139          45.688  
R22  19578164.782   104509584.304         684.979          50.375    19578171.556    81285258.994         532.798          47.938    19578171.447    81285267.004         532.736          48.063  
R23  22694605.486   121400848.526        4250.890          40.875                                                                                                                                  
> 2023 09 10 11 31 50.0000000  0 10                     
R05  23950064.912   128026756.069       -3534.255          39.188    23950079.223    99576366.572       -2748.912          38.375    23950078.222    99576387.574       -2748.835          38.063  
R06  19548874.888   104316542.601       -1176.603          36.875                                                                                                                                  
R07  20114954.768   107676977.868        2323.439          49.750    20114962.959    83748805.361        1807.202          46.375    20114962.915    83748813.343        1807.086          46.875  
R08  23918340.970   128081657.624        3971.550          35.750    23918356.775    99619134.547        3088.887          40.500    23918356.847    99619138.545        3088.884          40.188  
R14  24104903.801   128492701.185       -2269.464          38.063    24104914.079    99938809.400       -1765.061          39.438    24104913.866    99938811.387       -1765.040          38.688  
R15  22593741.683   120734173.852         834.463          43.563    22593751.417    93904435.329         649.091          42.438    22593750.998    93904430.315         649.048          42.625  
R16  23302522.913   124477946.219        3750.699          40.063    23302535.915    96816269.176        2917.192          39.813    23302535.941    96816263.180        2917.288          39.688  
R21  20688464.670   110708121.888       -3203.612          47.688    20688473.607    86106338.411       -2491.682          45.313    20688473.622    86106342.402       -2491.735          45.438  
R22  19578036.464   104508899.848         683.868          50.313    19578043.374    81284726.650         531.852          47.875    19578043.210    81284734.656         531.859          48.000  
R23  22693810.955   121396597.821        4250.389          40.813                                                                                                                                  
> 2023 09 10 11 31 51.0000000  0 10                     
R05  23950725.959   128030290.135       -3534.031          39.313    23950740.471    99579115.297       -2748.641          38.250    23950739.128    99579136.301       -2748.728          38.313  
R06  19549095.795   104317719.322       -1176.927          36.813                                                                                                                                  
R07  20114520.836   107674654.457        2323.218          49.625    20114528.925    83746998.266        1806.970          46.438    20114528.958    83747006.258        1806.871          46.813  
R08  23917598.998   128077686.021        3971.467          36.000    23917615.270    99616045.518        3089.031          40.313    23917615.139    99616049.534        3088.855          40.375  
R14  24105329.283   128494970.667       -2269.886          37.500    24105339.715    99940574.530       -1765.400          39.625    24105339.815    99940576.544       -1765.337          39.188  
R15  22593585.515   120733339.639         833.818          43.813    22593595.333    93903786.512         648.576          42.313    22593594.920    93903781.494         648.605          42.563  
R16  23301820.842   124474195.522        3750.558          39.875    23301833.632    96813351.978        2917.139          39.750    23301833.592    96813345.988        2916.994          39.750  
R21  20689063.406   110711325.651       -3204.036          47.625    20689072.458    86108830.215       -2492.037          45.500    20689072.395    86108834.214       -2492.061          45.563  
R22  19577908.431   104508216.283         683.165          50.313    19577915.285    81284194.990         531.299          47.938    19577915.111    81284202.994         531.324          47.938  
R23  22693016.522   121392347.496        4250.208          41.000                                                                                                                                  
> 2023 09 10 11 31 52.0000000  0 10                     
R05  23951387.608   128033824.222       -3534.041          39.313    23951401.444    99581864.026       -2748.685          38.000    23951400.208    99581885.021       -2748.559          38.438  
R06  19549316.284   104318896.559       -1177.418          36.813                                                                                                                                  
R07  20114086.901   107672331.534        2322.706          49.500    20114095.102    83745191.549        1806.557          46.500    20114095.089    83745199.532        1806.696          46.938  
R08  23916856.999   128073714.559        3971.575          36.625    23916873.868    99612956.613        3088.961          39.938    23916873.320    99612960.616        3088.852          39.750  
R14  24105755.402   128497240.811       -2270.294          37.750    24105766.024    99942340.211       -1765.906          40.313    24105765.988    99942342.226       -1765.844          39.313  
R15  22593429.369   120732506.301         832.996          43.750    22593439.389    93903138.355         647.839          42.125    22593439.102    93903133.346         647.953          42.688  
R16  23301118.738   124470445.250        3750.163          39.813    23301131.632    96810435.100        2916.683          39.438    23301131.306    96810429.110        2916.887          39.813  
R21  20689662.254   110714530.009       -3204.616          47.688    20689671.274    86111322.492       -2492.532          45.563    20689671.261    86111326.493       -2492.477          45.625  
R22  19577780.627   104507533.656         682.179          50.313    19577787.349    81283664.052         530.574          47.938    19577787.200    81283672.058         530.710          48.125  
R23  22692221.992   121388097.566        4249.789          40.688                                                                                                                                  
> 2023 09 10 11 31 53.0000000  0 10                     
R05  23952048.454   128037358.181       -3533.817          39.250    23952062.159    99584612.635       -2748.234          38.188    23952061.342    99584633.638       -2748.514          38.500  
R06  19549536.590   104320074.157       -1177.757          37.063                                                                                                                                  
R07  20113652.981   107670008.970        2322.534          49.375    20113661.226    83743385.122        1806.427          46.438    20113661.203    83743393.102        1806.506          46.750  
R08  23916115.303   128069743.152        3971.438          36.938    23916132.091    99609867.747        3088.888          39.625    23916131.625    99609871.744        3089.104          39.625  
R14  24106181.222   128499511.489       -2270.824          38.250    24106192.619    99944106.286       -1766.123          40.375    24106192.366    99944108.293       -1766.056          39.875  
R15  22593273.582   120731673.736         832.303          43.688    22593283.525    93902490.797         647.460          42.000    22593283.271    93902485.791         647.436          42.313  
R16  23300416.735   124466695.253        3750.028          39.875    23300429.808    96807518.439        2916.703          39.500    23300429.265    96807512.434        2916.760          39.625  
R21  20690261.076   110717734.876       -3204.915          47.563    20690270.093    86113815.157       -2492.708          45.500    20690270.146    86113819.150       -2492.708          45.375  
R22  19577652.826   104506851.817         681.593          50.250    19577659.555    81283133.736         530.147          48.000    19577659.482    81283141.739         530.235          48.125  
R23  22691427.667   121383847.919        4249.766          40.875                                                                                                                                  
> 2023 09 10 11 31 54.0000000  0 10                     
R05  23952709.992   128040892.108       -3533.623          39.563    23952723.049    99587361.263       -2748.266          38.063    23952722.409    99587382.256       -2748.330          38.500  
R06  19549757.070   104321252.283       -1178.056          37.063                                                                                                                                  
R07  20113219.200   107667686.918        2322.106          49.250    20113227.370    83741579.078        1806.105          46.563    20113227.456    83741587.061        1806.079          47.000  
R08  23915374.246   128065771.882        3971.665          37.375    23915390.443    99606778.970        3089.120          39.750    23915389.904    99606782.998        3088.945          39.813  
R14  24106607.243   128501782.799       -2271.441          39.313    24106619.257    99945872.872       -1766.559          40.813    24106618.896    99945874.879       -1766.625          40.125  
R15  22593117.996   120730842.060         831.560          43.875    22593127.829    93901843.951         646.659          41.938    22593127.672    93901838.944         646.657          42.313  
R16  23299714.539   124462945.648        3749.655          40.063    23299727.757    96804602.092        2916.463          39.125    23299727.377    96804596.088        2916.311          40.063  
R21  20690860.239   110720940.376       -3205.557          47.625    20690869.257    86116308.326       -2493.204          45.375    20690869.231    86116312.315       -2493.138          45.563  
R22  19577525.248   104506170.912         680.831          50.188    19577531.892    81282604.146         529.486          48.063    19577531.947    81282612.157         529.358          48.188  
R23  22690633.450   121379598.667        4249.310          40.938                                                                                                                                  
> 2023 09 10 11 31 55.0000000  0 10                     
R05  23953371.321   128044426.683       -3534.765          39.250    23953384.415    99590110.393       -2749.381          37.938    23953383.610    99590131.368       -2749.196          38.313  
R06  19549977.583   104322431.565       -1179.869          36.813                                                                                                                                  
R07  20112785.705   107665366.024        2320.289          49.250    20112793.816    83739773.943        1804.728          46.625    20112793.865    83739781.925        1804.792          47.063  
R08  23914633.203   128061801.424        3970.197          38.000    23914649.003    99603690.871        3087.847          39.563    23914648.482    99603694.878        3087.854          39.813  
R14  24107033.821   128504055.408       -2273.230          39.938    24107045.704    99947640.452       -1768.062          41.000    24107045.614    99947642.469       -1768.089          40.063  
R15  22592962.684   120730011.909         829.447          44.000    22592972.393    93901198.283         645.096          42.063    22592972.328    93901193.275         645.224          42.500  
R16  23299012.681   124459197.108        3748.017          40.063    23299025.850    96801686.557        2915.330          38.938    23299025.547    96801680.578        2915.064          39.500  
R21  20691459.414   110724147.172       -3207.400          47.688    20691468.546    86118802.504       -2494.702          45.313    20691468.477    86118806.493       -2494.644          45.375  
R22  19577398.046   104505491.586         678.549          50.313    19577404.686    81282075.787         527.764          48.063    19577404.693    81282083.796         527.793          48.188  
R23  22689838.983   121375350.474        4247.684          40.750                                                                                                                                  
> 2023 09 10 11 31 56.0000000  0 10                     
R05  23954032.395   128047961.744       -3534.019          38.938    23954045.897    99592859.872       -2748.682          37.750    23954044.905    99592880.867       -2748.970          38.438  
R06  19550198.767   104323611.881       -1179.691          36.875                                                                                                                                  
R07  20112352.197   107663046.176        2320.472          49.125    20112360.348    83737969.624        1804.795          46.750    20112360.578    83737977.603        1804.734          47.063  
R08  23913892.845   128057831.659        3970.607          38.438    23913907.190    99600603.262        3088.179          39.438    23913907.092    99600607.277        3088.001          39.375  
R14  24107460.605   128506329.177       -2273.156          40.375    24107472.031    99949408.943       -1768.000          40.688    24107472.431    99949410.953       -1768.101          40.000  
R15  22592807.428   120729183.146         829.209          43.938    22592817.167    93900553.685         644.894          41.938    22592817.207    93900548.668         644.825          42.438  
R16  23298311.244   124455449.487        3748.438          40.063    23298324.176    96798771.764        2915.318          39.063    23298323.914    96798765.778        2915.150          39.750  
R21  20692058.898   110727355.099       -3207.297          47.500    20692067.985    86121297.549       -2494.596          45.188    20692067.939    86121301.545       -2494.741          45.500  
R22  19577271.092   104504813.679         678.328          50.313    19577277.649    81281548.524         527.628          47.813    19577277.744    81281556.528         527.530          48.125  
R23  22689044.757   121371103.189        4248.135          40.813                                                                                                                                  
> 2023 09 10 11 31 57.0000000  0 10                     
R05  23954693.391   128051496.629       -3534.974          39.063    23954707.223    99595609.206       -2749.362          37.750    23954706.307    99595630.212       -2749.426          38.375  
R06  19550420.092   104324792.520       -1180.818          36.563                                                                                                                                  
R07  20111918.748   107660726.696        2319.113          49.063    20111927.057    83736165.591        1803.754          46.750    20111927.269    83736173.581        1803.720          47.125  
R08  23913152.277   128053861.839        3969.693          38.750    23913165.578    99597515.643        3087.485          39.438    23913165.669    99597519.658        3087.485          39.313  
R14  24107887.816   128508603.414       -2274.723          40.750    24107898.623    99951177.816       -1769.287          40.625    24107899.122    99951179.807       -1769.030          40.250  
R15  22592652.394   120728355.087         827.464          44.000    22592662.325    93899909.650         643.559          41.750    22592662.220    93899904.636         643.604          42.688  
R16  23297609.873   124451702.151        3746.927          40.125    23297622.844    96795857.165        2914.446          38.938    23297622.325    96795851.166        2914.360          39.875  
R21  20692658.251   110730563.459       -3208.743          47.625    20692667.422    86123792.930       -2495.643          45.188    20692667.422    86123796.932       -2495.783          45.250  
R22  19577144.281   104504136.537         676.545          50.313    19577150.845    81281021.855         526.245          47.750    19577150.861    81281029.855         526.247          48.188  
R23  22688250.882   121366856.138        4246.677          41.000                                                                                                                                  
> 2023 09 10 11 31 58.0000000  0 10                     
R05  23955354.704   128055032.135       -3535.454          38.875    23955368.504    99598359.046       -2749.889          37.438    23955367.678    99598380.036       -2749.809          38.375  
R06  19550641.431   104325974.325       -1182.067          36.813                                                                                                                                  
R07  20111485.550   107658408.370        2318.063          49.125    20111494.059    83734362.453        1802.941          46.813    20111494.211    83734370.439        1802.910          47.125  
R08  23912411.766   128049892.845        3968.984          38.813    23912424.270    99594428.637        3086.898          39.063    23912424.480    99594432.631        3087.009          39.375  
R14  24108314.716   128510878.909       -2275.759          40.875    24108325.238    99952947.644       -1769.979          40.625    24108326.005    99952949.638       -1769.989          40.188  
R15  22592497.766   120727528.555         826.098          44.125    22592507.699    93899266.795         642.500          42.000    22592507.404    93899261.781         642.491          42.500  
R16  23296908.771   124447955.844        3746.216          40.438    23296922.035    96792943.389        2913.505          39.250    23296921.076    96792937.398        2913.540          39.750  
R21  20693258.038   110733773.050       -3209.872          47.688    20693267.373    86126289.276       -2496.610          45.250    20693267.170    86126293.276       -2496.659          45.438  
R22  19577017.732   104503460.942         675.115          50.250    19577024.310    81280496.403         525.050          47.688    19577024.301    81280504.398         525.044          48.125  
R23  22687456.777   121362610.127        4245.767          41.250                                                                                                                                  
> 2023 09 10 11 31 59.0000000  0 10                     
R05  23956015.870   128058567.264       -3535.054          38.625    23956030.140    99601108.600       -2749.495          37.063    23956029.102    99601129.611       -2749.618          38.125  
R06  19550863.126   104327156.237       -1182.056          36.750                                                                                                                                  
R07  20111052.489   107656090.188        2317.951          49.188    20111060.955    83732559.418        1802.881          46.875    20111061.134    83732567.411        1802.921          47.125  
R08  23911670.711   128045923.629        3969.117          39.125    23911683.377    99591341.453        3087.240          38.813    23911683.371    99591345.478        3087.021          39.188  
R14  24108742.058   128513154.705       -2276.056          41.000    24108752.138    99954717.717       -1770.357          40.625    24108752.763    99954719.702       -1770.092          40.000  
R15  22592342.854   120726702.524         825.612          44.188    22592353.456    93898624.335         642.090          41.938    22592352.798    93898619.338         642.032          42.313  
R16  23296207.512   124444209.581        3746.028          40.500    23296220.965    96790029.649        2913.531          39.500    23296219.823    96790023.641        2913.707          40.000  
R21  20693857.904   110736982.892       -3210.166          47.688    20693867.203    86128785.814       -2496.725          45.250    20693866.985    86128789.821       -2496.779          45.375  
R22  19576891.335   104502785.890         674.642          50.188    19576897.904    81279971.360         524.734          47.563    19576897.822    81279979.365         524.786          48.063  
R23  22686662.809   121358364.137        4245.723          41.500                                                                                                                                  
> 2023 09 10 11 32 00.0000000  0 10                     
R05  23956676.887   128062102.002       -3534.352          38.500    23956690.924    99603857.825       -2748.890          37.250    23956690.223    99603878.849       -2749.020          38.438  
R06  19551084.304   104328338.261       -1182.057          36.563                                                                                                                                  
R07  20110619.467   107653772.097        2318.010          49.250    20110627.915    83730756.456        1802.868          47.000    20110628.093    83730764.455        1802.841          47.125  
R08  23910929.539   128041954.176        3969.536          39.125    23910941.832    99588254.117        3087.328          38.563    23910941.963    99588258.113        3087.353          38.813  
R14  24109168.882   128515430.757       -2276.073          40.875    24109179.070    99956487.967       -1770.374          40.563    24109179.678    99956489.976       -1770.385          40.063  
R15  22592188.241   120725876.962         825.244          44.000    22592199.194    93897982.229         641.821          41.875    22592198.276    93897977.215         641.862          42.438  
R16  23295506.419   124440463.321        3746.196          40.688    23295519.680    96787115.894        2913.598          39.813    23295518.748    96787109.885        2913.659          40.375  
R21  20694457.889   110740192.977       -3210.270          47.563    20694467.035    86131282.548       -2496.844          45.250    20694466.875    86131286.543       -2496.816          45.438  
R22  19576764.926   104502111.361         674.201          50.188    19576771.388    81279446.724         524.445          47.688    19576771.449    81279454.733         524.399          48.125  
R23  22685869.045   121354118.154        4245.900          41.625                                                                                                                                  
> 2023 09 10 11 32 01.0000000  0 10                     
R05  23957338.305   128065636.328       -3534.253          38.563    23957352.315    99606606.751       -2748.771          37.063    23957351.164    99606627.757       -2748.788          38.500  
R06  19551305.633   104329520.365       -1182.220          36.500                                                                                                                                  
R07  20110186.506   107651454.060        2318.007          49.250    20110194.831    83728953.546        1802.880          47.063    20110195.088    83728961.535        1802.852          47.188  
R08  23910187.991   128037984.458        3969.810          39.188    23910200.549    99585166.540        3087.735          38.563    23910200.514    99585170.552        3087.913          38.500  
R14  24109595.874   128517707.034       -2276.447          40.125    24109605.829    99958258.406       -1770.634          40.438    24109606.548    99958260.409       -1770.572          39.938  
R15  22592033.998   120725051.845         824.925          43.938    22592044.676    93897340.474         641.646          41.625    22592043.822    93897335.470         641.577          42.375  
R16  23294805.141   124436717.027        3746.278          40.625    23294818.451    96784202.111        2913.769          40.000    23294817.562    96784196.117        2913.630          40.688  
R21  20695057.988   110743403.250       -3210.369          47.688    20695067.057    86133779.422       -2496.948          45.313    20695066.770    86133783.427       -2496.951          45.750  
R22  19576638.704   104501437.326         673.738          50.250    19576645.252    81278922.473         524.001          47.688    19576645.175    81278930.478         524.032          48.188  
R23  22685075.510   121349872.119        4246.072          41.500                                                                                                                                  
> 2023 09 10 11 32 02.0000000  0 10                     
R05  23957999.392   128069170.883       -3534.878          38.813    23958013.198    99609355.847       -2749.375          37.375    23958012.464    99609376.861       -2749.345          38.000  
R06  19551527.501   104330703.229       -1183.447          36.813                                                                                                                                  
R07  20109753.618   107649136.790        2316.690          49.250    20109761.833    83727151.226        1801.877          46.938    20109762.239    83727159.209        1801.882          47.188  
R08  23909446.949   128034015.159        3968.919          39.188    23909458.872    99582079.338        3086.868          38.563    23909459.226    99582083.343        3086.952          38.813  
R14  24110022.863   128519984.223       -2277.885          39.500    24110032.842    99960029.554       -1771.608          40.438    24110033.678    99960031.544       -1771.512          39.688  
R15  22591880.021   120724227.904         823.182          44.000    22591890.580    93896699.645         640.092          41.688    22591889.640    93896694.624         640.263          42.250  
R16  23294103.949   124432971.433        3745.097          40.813    23294117.259    96781288.875        2912.852          40.250    23294116.430    96781282.875        2912.856          40.813  
R21  20695658.028   110746614.409       -3211.744          47.750    20695666.948    86136276.990       -2498.024          45.188    20695666.866    86136280.982       -2497.962          45.438  
R22  19576512.699   104500764.504         672.010          50.188    19576519.009    81278399.163         522.679          47.688    19576519.156    81278407.165         522.759          48.188  
R23  22684282.156   121345626.752        4244.876          41.563                                                                                                                                  
> 2023 09 10 11 32 03.0000000  0 10                     
R05  23958661.122   128072705.486       -3534.465          38.938    23958674.248    99612104.983       -2749.119          37.813    23958673.803    99612125.987       -2749.013          38.438  
R06  19551749.302   104331886.716       -1183.639          36.813                                                                                                                                  
R07  20109320.854   107646820.063        2316.647          49.375    20109329.186    83725349.326        1801.849          46.938    20109329.489    83725357.322        1801.754          47.125  
R08  23908705.750   128030046.097        3969.127          39.188    23908717.883    99578992.296        3087.039          38.438    23908717.979    99578996.303        3087.077          38.625  
R14  24110449.906   128522262.093       -2278.081          38.813    24110459.974    99961801.231       -1771.811          40.313    24110460.776    99961803.222       -1771.802          39.813  
R15  22591725.950   120723404.885         822.705          44.063    22591736.684    93896059.503         639.885          41.375    22591735.513    93896054.487         640.019          41.938  
R16  23293402.714   124429226.266        3745.163          40.563    23293416.124    96778375.991        2912.766          40.313    23293415.391    96778369.986        2912.730          40.500  
R21  20696258.260   110749826.197       -3211.968          47.813    20696267.073    86138775.034       -2498.183          45.188    20696267.101    86138779.041       -2498.186          45.438  
R22  19576386.895   104500092.632         671.536          50.188    19576393.229    81277876.605         522.273          47.750    19576393.270    81277884.609         522.320          48.313  
R23  22683489.030   121341381.834        4244.830          41.438                                                                                                                                  
> 2023 09 10 11 32 04.0000000  0 10                     
R05  23959322.110   128076239.678       -3533.824          39.188    23959335.808    99614853.813       -2748.644          38.000    23959334.995    99614874.800       -2748.460          38.500  
R06  19551971.259   104333070.311       -1183.409          36.813                                                                                                                                  
R07  20108888.269   107644503.455        2316.762          49.438    20108896.409    83723547.525        1801.923          47.000    20108896.721    83723555.510        1801.915          47.188  
R08  23907964.096   128026076.836        3969.569          39.313    23907976.671    99575905.095        3087.374          38.125    23907976.669    99575909.106        3087.448          38.750  
R14  24110876.382   128524540.198       -2277.855          38.250    24110887.513    99963573.075       -1771.764          40.500    24110888.079    99963575.085       -1771.765          39.875  
R15  22591571.666   120722582.348         822.531          43.750    22591582.585    93895419.748         639.815          41.313    22591581.456    93895414.745         639.694          42.063  
R16  23292701.430   124425481.157        3745.333          40.563    23292714.955    96775463.117        2913.131          40.438    23292714.259    96775457.111        2913.126          40.375  
R21  20696858.528   110753038.211       -3211.948          47.875    20696867.109    86141273.264       -2498.149          45.125    20696867.300    86141277.270       -2498.226          45.438  
R22  19576261.053   104499421.310         671.188          50.125    19576267.559    81277354.458         522.084          47.750    19576267.515    81277362.466         522.078          48.250  
R23  22682695.682   121337136.939        4245.017          41.500                                                                                                                                  
> 2023 09 10 11 32 05.0000000  0 10                     
R05  23959982.718   128079773.928       -3534.629          39.250    23959996.890    99617602.663       -2749.062          38.125    23959996.326    99617623.657       -2749.014          38.438  
R06  19552193.114   104334254.481       -1184.779          36.813                                                                                                                                  
R07  20108455.627   107642187.424        2315.466          49.500    20108463.627    83721746.168        1800.938          47.000    20108464.060    83721754.155        1800.919          47.250  
R08  23907222.590   128022107.809        3968.704          39.188    23907235.387    99572818.092        3086.813          37.875    23907235.506    99572822.093        3086.610          38.125  
R14  24111303.015   128526819.045       -2279.602          38.125    24111315.219    99965345.494       -1772.782          40.563    24111315.410    99965347.508       -1772.889          39.250  
R15  22591417.863   120721760.736         820.929          43.625    22591428.539    93894780.726         638.477          41.375    22591427.740    93894775.725         638.369          42.375  
R16  23291999.904   124421736.473        3744.212          40.563    23292013.836    96772550.626        2912.129          40.313    23292013.278    96772544.620        2912.082          40.438  
R21  20697458.799   110756250.947       -3213.398          47.813    20697467.614    86143772.059       -2499.256          45.063    20697467.687    86143776.067       -2499.326          45.313  
R22  19576135.521   104498750.959         669.636          50.125    19576142.034    81276833.074         520.803          47.813    19576141.943    81276841.086         520.752          48.125  
R23  22681902.495   121332892.510        4243.898          41.313                                                                                                                                  
> 2023 09 10 11 32 06.0000000  0 10                     
R05  23960643.985   128083308.366       -3534.555          39.313    23960657.730    99620351.662       -2749.163          38.500    23960657.706    99620372.649       -2749.009          38.625  
R06  19552415.538   104335439.333       -1185.084          36.938                                                                                                                                  
R07  20108023.251   107639872.086        2315.048          49.625    20108031.116    83719945.351        1800.616          46.938    20108031.542    83719953.336        1800.617          47.313  
R08  23906481.636   128018139.126        3968.573          39.250    23906494.151    99569731.337        3086.617          37.938    23906494.348    99569735.333        3086.725          38.188  
R14  24111730.574   128529098.736       -2280.060          38.125    24111742.443    99967118.619       -1773.328          40.188    24111742.897    99967120.617       -1773.441          39.688  
R15  22591264.216   120720940.196         820.066          43.563    22591275.103    93894142.528         637.829          41.500    22591274.126    93894137.518         637.748          42.063  
R16  23291299.177   124417992.407        3743.893          40.438    23291313.081    96769638.578        2911.850          40.563    23291312.427    96769632.560        2911.806          40.875  
R21  20698059.324   110759464.517       -3213.884          47.813    20698068.202    86146271.503       -2499.668          44.813    20698068.226    86146275.505       -2499.754          45.438  
R22  19576010.090   104498081.715         668.760          50.188    19576016.614    81276312.551         520.119          47.750    19576016.572    81276320.556         520.119          48.125  
R23  22681109.380   121328648.638        4243.642          41.250                                                                                                                                  
> 2023 09 10 11 32 07.0000000  0 10                     
R05  23961305.765   128086842.972       -3534.396          39.438    23961318.967    99623100.801       -2749.002          38.500    23961319.090    99623121.798       -2749.080          38.813  
R06  19552638.005   104336624.909       -1185.727          36.813                                                                                                                                  
R07  20107590.841   107637557.491        2314.555          49.688    20107598.690    83718145.115        1800.176          46.875    20107599.177    83718153.111        1800.154          47.313  
R08  23905740.324   128014170.802        3968.451          39.250    23905752.827    99566644.852        3086.570          37.625    23905753.155    99566648.867        3086.540          37.938  
R14  24112158.350   128531379.357       -2280.899          38.563    24112170.637    99968892.430       -1773.955          40.438    24112170.666    99968894.421       -1773.797          39.438  
R15  22591110.787   120720120.771         819.172          43.563    22591122.021    93893505.194         637.126          41.250    22591120.839    93893500.202         636.927          41.938  
R16  23290598.703   124414248.955        3743.329          40.563    23290612.260    96766727.011        2911.587          40.688    23290611.706    96766721.007        2911.468          40.688  
R21  20698659.975   110762678.903       -3214.445          47.813    20698668.964    86148771.586       -2500.211          44.938    20698668.877    86148775.582       -2500.204          45.438  
R22  19575885.096   104497413.582         667.791          50.188    19575891.392    81275792.897         519.394          47.500    19575891.367    81275800.901         519.370          48.125  
R23  22680316.675   121324405.396        4243.222          41.313                                                                                                                                  
> 2023 09 10 11 32 08.0000000  0 10                     
R05  23961967.005   128090377.590       -3534.725          39.313    23961980.417    99625849.935       -2749.175          38.438    23961980.371    99625870.921       -2748.960          38.563  
R06  19552859.699   104337811.009       -1186.396          36.875                                                                                                                                  
R07  20107158.500   107635243.429        2313.774          49.688    20107166.468    83716345.285        1799.713          46.875    20107166.909    83716353.276        1799.742          47.313  
R08  23904999.140   128010202.625        3968.139          39.125    23905012.221    99563558.500        3086.485          37.813    23905012.046    99563562.508        3086.260          37.875  
R14  24112586.311   128533660.606       -2281.559          39.188    24112598.500    99970666.744       -1774.571          40.500    24112598.533    99970668.723       -1774.425          39.875  
R15  22590957.441   120719302.246         818.058          43.375    22590968.557    93892868.579         636.390          41.250    22590967.726    93892863.559         636.385          42.000  
R16  23289897.549   124410505.905        3742.890          40.563    23289911.700    96763815.766        2911.115          40.875    23289911.124    96763809.749        2911.292          40.875  
R21  20699260.832   110765893.859       -3215.244          47.813    20699269.971    86151272.095       -2500.705          44.875    20699269.684    86151276.089       -2500.578          45.563  
R22  19575760.061   104496746.386         666.709          50.250    19575766.406    81275273.960         518.591          47.438    19575766.411    81275281.963         518.684          48.188  
R23  22679523.381   121320162.518        4242.635          41.500                                                                                                                                  
> 2023 09 10 11 32 09.0000000  0 10                     
R05  23962628.198   128093911.337       -3533.555          39.563    23962642.023    99628598.395       -2748.308          38.438    23962641.487    99628619.407       -2748.491          38.563  
R06  19553081.641   104338996.755       -1185.664          37.063                                                                                                                                  
R07  20106726.213   107632929.038        2314.214          49.750    20106734.094    83714545.209        1799.958          47.000    20106734.571    83714553.199        1799.950          47.250  
R08  23904257.066   128006233.749        3968.924          39.000    23904270.930    99560471.619        3086.828          37.625    23904270.923    99560475.616        3086.882          38.125  
R14  24113014.747   128535941.636       -2281.239          39.750    24113026.629    99972440.868       -1774.253          41.000    24113026.615    99972442.873       -1774.229          40.313  
R15  22590804.216   120718483.759         818.172          43.500    22590815.166    93892231.980         636.375          41.375    22590814.466    93892226.969         636.372          42.000  
R16  23289197.392   124406762.472        3743.387          40.625    23289210.943    96760904.208        2911.456          40.938    23289210.407    96760898.202        2911.527          41.125  
R21  20699861.658   110769108.569       -3214.949          47.875    20699870.798    86153772.422       -2500.529          44.875    20699870.424    86153776.412       -2500.406          45.438  
R22  19575635.098   104496079.291         666.710          50.375    19575641.339    81274755.110         518.534          47.438    19575641.421    81274763.112         518.627          48.188  
R23  22678730.154   121315919.216        4243.237          41.563                                                                                                                                  
> 2023 09 10 11 32 10.0000000  0 10                     
R05  23963289.652   128097445.311       -3534.244          39.875    23963303.297    99631347.027       -2748.774          38.438    23963302.594    99631368.042       -2748.930          38.688  
R06  19553304.363   104340183.277       -1186.979          36.875                                                                                                                                  
R07  20106293.866   107630615.374        2313.145          49.875    20106302.005    83712745.694        1799.123          46.938    20106302.375    83712753.686        1799.095          47.250  
R08  23903515.978   128002265.315        3968.044          39.063    23903530.007    99557385.052        3086.201          37.813    23903529.658    99557389.058        3086.279          38.188  
R14  24113443.056   128538223.496       -2282.480          40.313    24113454.932    99974215.662       -1775.161          41.125    24113454.992    99974217.666       -1775.164          40.375  
R15  22590651.353   120717666.380         816.734          43.500    22590662.189    93891596.243         635.259          41.500    22590661.505    93891591.238         635.170          41.875  
R16  23288496.225   124403019.669        3742.271          40.438    23288510.695    96757993.152        2910.680          41.250    23288509.726    96757987.142        2910.712          40.875  
R21  20700462.347   110772324.125       -3216.145          47.875    20700471.520    86156273.401       -2501.398          44.875    20700471.379    86156277.413       -2501.550          45.625  
R22  19575510.359   104495413.339         665.251          50.375    19575516.559    81274237.152         517.450          47.375    19575516.631    81274245.161         517.350          48.188  
R23  22677936.628   121311676.542        4242.180          41.625                                                                                                                                  
> 2023 09 10 11 32 11.0000000  0 10                     
R05  23963951.146   128100979.717       -3534.806          39.750    23963964.272    99634096.001       -2749.377          38.500    23963963.693    99634116.999       -2749.294          38.000  
R06  19553526.551   104341370.702       -1188.132          36.813                                                                                                                                  
R07  20105861.738   107628302.643        2312.077          49.875    20105870.067    83710946.908        1798.248          47.000    20105870.314    83710954.894        1798.384          47.375  
R08  23902774.777   127998297.494        3967.314          38.938    23902789.150    99554298.959        3085.691          38.063    23902788.625    99554302.969        3085.782          38.063  
R14  24113871.847   128540506.427       -2283.584          40.313    24113883.144    99975991.275       -1776.185          41.375    24113883.427    99975993.281       -1776.122          40.375  
R15  22590498.730   120716850.298         815.281          43.563    22590509.554    93890961.503         634.013          41.313    22590508.848    93890956.509         634.005          42.000  
R16  23287795.597   124399277.681        3741.321          40.250    23287810.128    96755082.718        2909.982          41.375    23287809.345    96755076.720        2909.908          41.500  
R21  20701063.312   110775540.755       -3217.393          47.813    20701072.602    86158775.227       -2502.452          44.875    20701072.512    86158779.224       -2502.255          45.375  
R22  19575385.889   104494748.731         663.756          50.375    19575392.069    81273720.237         516.212          47.375    19575392.168    81273728.235         516.320          48.125  
R23  22677143.595   121307434.699        4241.234          41.563                                                                                                                                  
> 2023 09 10 11 32 12.0000000  0 10                     
R05  23964612.398   128104513.893       -3533.568          39.750    23964625.448    99636844.796       -2748.397          38.313    23964624.840    99636865.821       -2748.560          38.563  
R06  19553749.674   104342558.440       -1187.562          36.813                                                                                                                                  
R07  20105429.797   107625990.194        2312.770          50.063    20105438.023    83709148.333        1798.823          47.000    20105438.328    83709156.336        1798.650          47.375  
R08  23902034.388   127994329.603        3968.329          38.875    23902048.083    99551212.846        3086.459          38.188    23902047.655    99551216.849        3086.272          38.438  
R14  24114300.704   128542789.759       -2282.995          40.625    24114311.445    99977767.207       -1775.890          41.563    24114311.970    99977769.210       -1775.816          40.563  
R15  22590346.303   120716034.855         815.568          43.313    22590357.116    93890327.262         634.485          41.313    22590356.326    93890322.283         634.247          42.000  
R16  23287094.936   124395535.850        3742.315          39.938    23287109.480    96752172.433        2910.555          41.500    23287108.816    96752166.441        2910.467          41.125  
R21  20701664.465   110778757.806       -3216.888          47.813    20701673.745    86161277.371       -2501.973          44.875    20701673.682    86161281.383       -2502.071          45.563  
R22  19575261.522   104494084.826         663.986          50.438    19575267.670    81273203.856         516.487          47.313    19575267.839    81273211.873         516.290          48.125  
R23  22676349.855   121303193.026        4242.071          41.563                                                                                                                                  
> 2023 09 10 11 32 13.0000000  0 10                     
R05  23965273.315   128108048.411       -3534.382          39.438    23965286.356    99639593.863       -2748.799          38.438    23965285.858    99639614.873       -2748.813          38.750  
R06  19553972.455   104343746.962       -1188.659          36.938                                                                                                                                  
R07  20104997.909   107623678.566        2311.585          50.125    20105006.110    83707350.401        1797.876          47.000    20105006.490    83707358.395        1797.968          47.313  
R08  23901292.908   127990362.217        3967.613          38.625    23901307.235    99548127.101        3085.698          38.125    23901306.815    99548131.078        3085.925          38.250  
R14  24114729.213   128545074.077       -2284.439          40.500    24114739.912    99979543.898       -1776.766          41.875    24114740.651    99979545.891       -1776.729          40.875  
R15  22590193.979   120715220.615         814.035          43.250    22590204.921    93889693.986         633.072          40.813    22590203.964    93889688.979         633.074          41.813  
R16  23286394.342   124391794.786        3741.027          39.875    23286409.105    96749262.708        2909.727          41.500    23286408.515    96749256.712        2909.726          41.250  
R21  20702265.755   110781975.786       -3218.107          47.750    20702275.153    86163780.246       -2502.955          44.938    20702275.052    86163784.239       -2502.844          45.438  
R22  19575137.431   104493422.156         662.411          50.313    19575143.607    81272688.452         515.197          47.375    19575143.756    81272696.456         515.221          48.063  
R23  22675557.035   121298952.080        4241.095          41.563                                                                                                                                  
> 2023 09 10 11 32 14.0000000  0 10                     
R05  23965934.690   128111583.008       -3534.795          39.188    23965947.519    99642342.994       -2749.174          38.563    23965947.161    99642363.991       -2749.287          38.813  
R06  19554195.152   104344936.090       -1189.562          36.938                                                                                                                                  
R07  20104566.166   107621367.520        2310.596          50.125    20104574.383    83705552.925        1797.084          47.125    20104574.723    83705560.914        1797.097          47.188  
R08  23900552.152   127986395.065        3966.827          38.438    23900566.542    99545041.513        3085.274          38.375    23900566.157    99545045.493        3085.447          38.313  
R14  24115158.056   128547359.162       -2285.632          40.188    24115168.440    99981321.183       -1777.697          41.750    24115169.457    99981323.194       -1777.811          40.938  
R15  22590041.765   120714407.343         812.621          43.188    22590053.033    93889061.430         632.085          40.750    22590051.768    93889056.421         632.077          41.563  
R16  23285693.807   124388054.222        3740.143          39.750    23285708.648    96746353.398        2908.904          41.375    23285708.170    96746347.381        2908.996          41.438  
R21  20702867.223   110785194.439       -3219.215          47.750    20702876.632    86166283.636       -2503.817          44.875    20702876.553    86166287.634       -2503.879          45.563  
R22  19575013.468   104492760.500         660.922          50.438    19575019.629    81272173.827         514.128          47.438    19575019.834    81272181.823         514.139          48.125  
R23  22674764.211   121294711.634        4239.965          41.563                                                                                                                                  
> 2023 09 10 11 32 15.0000000  0 10                     
R05  23966595.969   128115117.736       -3534.636          39.125    23966607.893    99645092.238       -2749.221          38.250    23966608.362    99645113.229       -2749.229          38.188  
R06  19554418.520   104346125.884       -1190.020          36.750                                                                                                                                  
R07  20104134.522   107619057.106        2310.143          50.125    20104142.773    83703755.934        1796.770          46.938    20104143.113    83703763.924        1796.889          47.063  
R08  23899811.848   127982428.157        3966.844          38.063    23899825.667    99541956.152        3085.326          38.250    23899825.514    99541960.149        3085.249          38.688  
R14  24115586.769   128549645.092       -2286.377          39.000    24115597.568    99983099.113       -1778.190          41.688    24115598.357    99983101.109       -1778.122          40.938  
R15  22589889.940   120713595.104         811.749          43.063    22589900.966    93888429.693         631.397          40.875    22589899.715    93888424.694         631.422          41.500  
R16  23284993.424   124384314.248        3739.589          39.750    23285008.621    96743444.533        2908.671          41.188    23285007.976    96743438.528        2908.789          41.188  
R21  20703468.889   110788413.872       -3219.752          47.750    20703478.343    86168787.634       -2504.243          44.938    20703478.255    86168791.630       -2504.146          45.375  
R22  19574889.696   104492099.910         660.104          50.438    19574895.768    81271660.041         513.404          47.438    19574896.104    81271668.035         513.490          48.000  
R23  22673971.711   121290471.721        4239.578          41.438                                                                                                                                  
> 2023 09 10 11 32 16.0000000  0 10                     
R05  23967256.819   128118651.886       -3534.428          39.063    23967269.060    99647840.993       -2748.811          38.000    23967269.483    99647862.022       -2749.082          38.313  
R06  19554641.469   104347315.621       -1190.272          37.063                                                                                                                                  
R07  20103702.879   107616746.633        2309.979          50.188    20103711.144    83701958.904        1796.670          46.875    20103711.477    83701966.908        1796.607          47.063  
R08  23899071.302   127978460.879        3966.921          38.125    23899084.983    99538870.473        3085.446          38.188    23899084.682    99538874.490        3085.471          38.875  
R14  24116015.538   128551931.087       -2286.494          38.000    24116026.308    99984877.106       -1778.467          41.563    24116027.289    99984879.115       -1778.322          40.625  
R15  22589737.883   120712783.210         811.087          43.063    22589748.711    93887798.223         630.981          40.750    22589747.550    93887793.222         630.977          41.750  
R16  23284293.104   124380574.110        3739.558          39.500    23284307.956    96740535.567        2908.691          41.125    23284307.814    96740529.570        2908.598          40.750  
R21  20704070.514   110791633.368       -3220.035          47.750    20704080.055    86171291.686       -2504.458          44.938    20704079.956    86171295.695       -2504.555          45.563  
R22  19574766.087   104491439.682         659.540          50.375    19574772.149    81271146.525         513.018          47.375    19574772.432    81271154.537         512.959          48.188  
R23  22673178.885   121286231.633        4239.586          41.563                                                                                                                                  
> 2023 09 10 11 32 17.0000000  0 10                     
R05  23967918.084   128122186.584       -3534.572          39.125    23967930.263    99650590.212       -2749.217          38.063    23967930.692    99650611.217       -2748.938          38.313  
R06  19554864.046   104348506.452       -1191.067          37.188                                                                                                                                  
R07  20103271.544   107614437.294        2309.145          50.313    20103279.695    83700162.754        1795.942          47.000    20103280.081    83700170.753        1796.075          47.125  
R08  23898331.704   127974494.353        3966.478          37.813    23898344.522    99535785.418        3085.058          38.313    23898343.971    99535789.434        3085.026          38.438  
R14  24116444.148   128554218.328       -2287.508          37.500    24116455.515    99986656.062       -1779.124          41.313    24116456.193    99986658.058       -1779.079          40.875  
R15  22589586.080   120711972.777         810.089          43.188    22589596.935    93887167.901         629.921          40.875    22589595.774    93887162.894         630.015          41.375  
R16  23283592.878   124376834.968        3738.973          39.500    23283607.825    96737627.362        2908.116          41.063    23283607.853    96737621.349        2908.204          41.313  
R21  20704672.365   110794854.059       -3220.967          47.750    20704681.844    86173796.661       -2505.175          44.938    20704681.819    86173800.664       -2505.149          45.563  
R22  19574642.741   104490780.967         658.271          50.438    19574648.782    81270634.198         511.983          47.438    19574649.007    81270642.197         512.042          48.188  
R23  22672386.569   121281992.543        4238.910          41.250                                                                                                                                  
> 2023 09 10 11 32 18.0000000  0 10                     
R05  23968579.558   128125721.120       -3534.320          38.750    23968591.956    99653339.309       -2749.012          37.938    23968591.894    99653360.292       -2748.766          38.438  
R06  19555087.512   104349697.674       -1191.141          37.125                                                                                                                                  
R07  20102840.247   107612128.365        2308.889          50.375    20102848.385    83698366.916        1795.833          47.000    20102848.672    83698374.907        1795.814          47.125  
R08  23897590.404   127970527.886        3966.560          37.625    23897603.831    99532700.381        3085.204          38.375    23897603.189    99532704.383        3085.278          38.625  
R14  24116872.619   128556506.026       -2287.694          37.375    24116884.755    99988435.395       -1779.365          41.375    24116885.165    99988437.379       -1779.538          40.688  
R15  22589434.762   120711163.099         809.439          43.250    22589445.625    93886538.138         629.487          40.813    22589444.338    93886533.124         629.609          41.375  
R16  23282893.325   124373096.068        3739.023          39.313    23282908.166    96734719.335        2908.000          40.875    23282907.838    96734713.331        2907.957          40.813  
R21  20705274.457   110798075.218       -3221.190          47.688    20705283.802    86176302.006       -2505.480          45.000    20705283.784    86176305.998       -2505.369          45.375  
R22  19574519.445   104490123.045         657.691          50.375    19574525.564    81270122.462         511.588          47.438    19574525.706    81270130.455         511.610          48.188  
R23  22671594.254   121277753.716        4238.828          41.375                                                                                                                                  
> 2023 09 10 11 32 19.0000000  0 10                     
R05  23969240.670   128129255.262       -3533.852          38.688    23969253.346    99656088.090       -2748.531          38.125    23969253.157    99656109.087       -2748.592          38.438  
R06  19555311.357   104350889.036       -1191.283          37.375                                                                                                                                  
R07  20102409.004   107609819.581        2308.846          50.500    20102417.139    83696571.198        1795.745          47.000    20102417.371    83696579.199        1795.758          47.125  
R08  23896849.388   127966561.182        3966.926          37.188    23896863.496    99529615.191        3085.350          38.375    23896862.388    99529619.190        3085.401          38.750  
R14  24117301.775   128558794.001       -2288.057          37.313    24117313.761    99990214.925       -1779.502          40.938    24117314.087    99990216.910       -1779.552          40.125  
R15  22589283.773   120710353.886         809.124          43.250    22589294.056    93885908.758         629.280          40.750    22589292.898    93885903.756         629.296          41.625  
R16  23282193.201   124369357.232        3738.884          39.375    23282208.218    96731811.357        2908.083          40.813    23282207.869    96731805.365        2907.877          41.000  
R21  20705876.485   110801296.628       -3221.446          47.750    20705885.807    86178807.538       -2505.547          45.000    20705885.816    86178811.547       -2505.603          45.688  
R22  19574396.462   104489465.681         657.207          50.375    19574402.414    81269611.178         511.193          47.438    19574402.580    81269619.186         511.154          48.188  
R23  22670801.615   121273514.904        4238.906          41.438                                                                                                                                  
> 2023 09 10 11 32 20.0000000  0 10                     
R05  23969901.951   128132789.657       -3533.869          38.688    23969914.943    99658837.052       -2748.647          38.063    23969914.210    99658858.074       -2748.677          38.313  
R06  19555535.081   104352081.151       -1191.917          37.313                                                                                                                                  
R07  20101977.770   107607511.542        2308.179          50.563    20101985.948    83694776.055        1795.294          46.938    20101986.141    83694784.054        1795.312          47.063  
R08  23896108.075   127962594.880        3966.534          37.063    23896122.570    99526530.310        3085.040          38.313    23896121.892    99526534.310        3085.175          38.688  
R14  24117730.779   128561082.841       -2288.751          37.938    24117742.843    99991995.129       -1780.073          40.563    24117743.189    99991997.140       -1780.201          39.938  
R15  22589132.403   120709545.811         808.057          43.250    22589142.564    93885280.240         628.547          40.813    22589141.569    93885275.236         628.375          41.625  
R16  23281493.441   124365619.056        3738.239          39.188    23281508.259    96728903.906        2907.633          40.875    23281507.912    96728897.905        2907.612          40.813  
R21  20706478.666   110804518.917       -3222.197          47.688    20706487.907    86181313.765       -2506.134          44.875    20706487.974    86181317.769       -2506.226          45.563  
R22  19574273.515   104488809.477         656.117          50.313    19574279.634    81269100.812         510.355          47.500    19574279.677    81269108.818         510.377          48.188  
R23  22670009.075   121269276.716        4238.327          41.250                                                                                                                                  
> 2023 09 10 11 32 21.0000000  0 10                     
R05  23970563.074   128136323.746       -3533.862          38.625    23970576.860    99661585.769       -2748.426          38.063    23970575.219    99661606.778       -2748.386          38.375  
R06  19555758.883   104353273.434       -1192.000          37.313                                                                                                                                  
R07  20101546.676   107605203.673        2307.938          50.625    20101554.834    83692981.049        1795.041          46.938    20101555.010    83692989.051        1795.085          46.938  
R08  23895367.078   127958628.420        3966.768          36.500    23895381.992    99523445.273        3085.347          38.563    23895381.164    99523449.286        3085.182          38.875  
R14  24118159.933   128563372.035       -2289.051          38.688    24118172.622    99993775.643       -1780.620          40.250    24118172.312    99993777.614       -1780.408          40.000  
R15  22588981.397   120708738.262         807.420          43.188    22588991.491    93884652.145         627.924          40.688    22588990.446    93884647.140         628.044          41.625  
R16  23280793.585   124361881.000        3738.172          39.125    23280808.285    96725996.537        2907.441          40.750    23280808.143    96725990.524        2907.533          41.188  
R21  20707080.851   110807741.498       -3222.562          47.563    20707090.169    86183820.208       -2506.476          45.000    20707090.145    86183824.215       -2506.425          45.500  
R22  19574150.669   104488153.866         655.439          50.375    19574156.905    81268590.891         509.773          47.563    19574156.869    81268598.898         509.870          48.063  
R23  22669217.021   121265038.626        4238.229          41.125                                                                                                                                  
> 2023 09 10 11 32 22.0000000  0 10                     
R05  23971224.192   128139857.691       -3534.368          38.813    23971237.915    99664334.399       -2748.832          38.000    23971236.339    99664355.393       -2748.816          38.063  
R06  19555982.304   104354466.114       -1193.019          37.188                                                                                                                                  
R07  20101115.520   107602896.157        2306.930          50.563    20101123.671    83691186.316        1794.298          46.938    20101123.861    83691194.311        1794.346          47.000  
R08  23894626.386   127954661.996        3966.107          36.188    23894641.402    99520360.296        3084.696          38.500    23894640.636    99520364.292        3084.684          39.125  
R14  24118589.542   128565661.780       -2290.349          39.125    24118601.440    99995556.549       -1781.428          39.875    24118601.593    99995558.523       -1781.237          39.688  
R15  22588830.139   120707931.442         806.011          43.125    22588840.721    93884024.637         626.866          41.125    22588839.573    93884019.626         626.950          41.688  
R16  23280094.141   124358143.229        3737.172          38.938    23280108.697    96723089.400        2906.712          41.000    23280108.446    96723083.386        2906.799          41.063  
R21  20707683.102   110810964.539       -3223.614          47.438    20707692.564    86186327.022       -2507.251          45.125    20707692.432    86186331.025       -2507.228          45.625  
R22  19574027.964   104487499.042         654.014          50.313    19574034.117    81268081.592         508.711          47.438    19574034.235    81268089.591         508.801          48.000  
R23  22668424.899   121260800.807        4237.219          41.063                                                                                                                                  
> 2023 09 10 11 32 23.0000000  0 10                     
R05  23971884.957   128143391.351       -3532.939          38.750    23971898.306    99667082.778       -2747.750          37.750    23971897.559    99667103.797       -2747.954          38.563  
R06  19556205.610   104355659.042       -1192.537          37.188                                                                                                                                  
R07  20100684.558   107600588.887        2307.776          50.625    20100692.522    83689391.775        1794.943          46.938    20100692.809    83689399.768        1794.963          46.813  
R08  23893885.782   127950695.496        3967.059          35.938    23893900.626    99517275.246        3085.555          38.750    23893900.055    99517279.234        3085.435          39.250  
R14  24119019.552   128567951.902       -2289.563          39.438    24119031.188    99997337.781       -1780.802          39.500    24119030.913    99997339.750       -1780.953          39.688  
R15  22588679.089   120707125.279         806.394          42.938    22588689.608    93883397.616         627.356          41.188    22588688.759    93883392.612         627.156          41.625  
R16  23279394.333   124354405.621        3738.147          38.750    23279408.932    96720182.379        2907.374          40.813    23279408.763    96720176.361        2907.480          40.750  
R21  20708285.506   110814187.915       -3222.867          47.313    20708294.761    86188834.094       -2506.703          45.125    20708294.831    86188838.094       -2506.749          45.438  
R22  19573905.447   104486844.876         654.462          50.375    19573911.465    81267572.784         509.033          47.438    19573911.690    81267580.784         508.996          48.000  
R23  22667632.333   121256563.128        4238.255          40.875                                                                                                                                  
> 2023 09 10 11 32 24.0000000  0 10                     
R05  23972546.284   128146925.063       -3533.436          38.813    23972559.028    99669831.235       -2748.184          38.063    23972558.759    99669852.242       -2748.330          38.563  
R06  19556429.301   104356852.522       -1193.380          37.438                                                                                                                                  
R07  20100253.799   107598282.200        2306.640          50.625    20100261.695    83687597.688        1794.071          46.813    20100261.830    83687605.684        1794.058          46.875  
R08  23893145.162   127946729.240        3966.325          36.000    23893159.564    99514190.376        3084.969          38.938    23893159.313    99514194.360        3085.026          39.188  
R14  24119449.959   128570242.710       -2290.983          39.750    24119460.622    99999119.521       -1781.834          40.000    24119460.520    99999121.514       -1781.821          40.188  
R15  22588528.564   120706320.087         804.973          42.875    22588539.278    93882771.364         626.132          41.250    22588538.025    93882766.355         626.156          41.500  
R16  23278695.001   124350668.446        3737.258          38.688    23278709.662    96717275.687        2906.823          40.813    23278709.110    96717269.708        2906.602          40.938  
R21  20708887.835   110817411.985       -3224.112          47.313    20708897.227    86191341.703       -2507.593          45.125    20708897.302    86191345.701       -2507.726          45.563  
R22  19573782.991   104486191.684         652.997          50.313    19573789.164    81267064.752         507.859          47.563    19573789.346    81267072.750         507.897          48.125  
R23  22666840.312   121252325.938        4237.287          41.063                                                                                                                                  
> 2023 09 10 11 32 25.0000000  0 10                     
R05  23973207.480   128150458.833       -3533.896          39.000    23973219.690    99672579.692       -2748.512          38.125    23973219.893    99672600.707       -2748.445          38.125  
R06  19556653.206   104358046.536       -1194.275          37.250                                                                                                                                  
R07  20099823.093   107595976.068        2305.753          50.625    20099830.926    83685804.028        1793.348          46.813    20099831.043    83685812.027        1793.415          46.625  
R08  23892403.281   127942763.153        3965.981          35.875    23892419.027    99511105.660        3084.550          39.125    23892418.772    99511109.646        3084.557          39.750  
R14  24119880.578   128572534.194       -2291.778          40.000    24119890.272   100000901.773       -1782.617          39.875    24119890.453   100000903.770       -1782.593          40.063  
R15  22588378.178   120705515.831         803.691          43.063    22588388.634    93882145.830         625.153          41.313    22588387.515    93882140.817         625.147          41.625  
R16  23277995.394   124346931.701        3736.344          38.750    23278010.338    96714369.346        2906.155          40.563    23278009.579    96714363.341        2906.368          40.875  
R21  20709490.523   110820636.721       -3225.153          47.188    20709499.874    86193849.825       -2508.476          45.125    20709499.907    86193853.824       -2508.387          45.375  
R22  19573660.856   104485539.444         651.697          50.250    19573666.865    81266557.444         506.943          47.563    19573667.132    81266565.450         506.998          48.000  
R23  22666048.327   121248089.163        4236.373          40.938                                                                                                                                  
> 2023 09 10 11 32 26.0000000  0 10                     
R05  23973868.334   128153991.952       -3532.972          39.250    23973880.980    99675327.657       -2747.699          38.313    23973880.875    99675348.686       -2747.846          38.500  
R06  19556876.362   104359240.467       -1194.190          37.125                                                                                                                                  
R07  20099392.305   107593669.855        2306.096          50.563    20099399.989    83684010.311        1793.606          46.875    20099400.135    83684018.308        1793.545          46.938  
R08  23891662.887   127938796.600        3966.632          35.813    23891678.452    99508020.589        3084.974          39.188    23891678.159    99508024.562        3084.949          39.625  
R14  24120310.862   128574825.711       -2291.747          39.625    24120320.122   100002684.073       -1782.412          40.063    24120320.592   100002686.066       -1782.531          40.250  
R15  22588227.600   120704711.843         803.644          43.125    22588238.241    93881520.511         625.093          41.375    22588237.125    93881515.482         625.093          41.750  
R16  23277295.729   124343194.756        3736.926          38.500    23277310.726    96711462.842        2906.467          40.625    23277309.948    96711456.852        2906.297          40.938  
R21  20710093.161   110823861.483       -3224.889          47.188    20710102.550    86196357.963       -2508.253          45.188    20710102.579    86196361.958       -2508.241          45.438  
R22  19573538.766   104484887.521         651.625          50.125    19573544.731    81266050.406         506.757          47.438    19573544.995    81266058.398         506.784          48.188  
R23  22665256.279   121243852.183        4236.819          40.750                                                                                                                                  
> 2023 09 10 11 32 27.0000000  0 10                     
R05  23974529.290   128157525.504       -3533.612          39.000    23974541.927    99678076.001       -2748.253          38.375    23974541.785    99678096.996       -2748.259          38.500  
R06  19557099.300   104360435.344       -1195.270          37.063                                                                                                                                  
R07  20098961.648   107591364.575        2305.110          50.563    20098969.497    83682217.315        1792.895          46.750    20098969.482    83682225.317        1792.865          46.750  
R08  23890922.350   127934830.676        3965.960          35.813    23890937.857    99504935.992        3084.740          39.188    23890937.542    99504939.985        3084.428          39.438  
R14  24120741.018   128577118.343       -2292.887          39.438    24120750.447   100004467.222       -1783.305          40.563    24120750.869   100004469.231       -1783.525          40.375  
R15  22588077.412   120703909.201         802.196          43.000    22588087.952    93880896.239         623.988          41.688    22588087.062    93880891.219         623.920          41.688  
R16  23276596.170   124339458.708        3735.888          38.500    23276611.082    96708557.032        2905.673          40.563    23276610.551    96708551.038        2905.712          40.875  
R21  20710696.014   110827087.283       -3225.995          47.313    20710705.434    86198866.925       -2509.135          45.125    20710705.398    86198870.920       -2509.217          45.313  
R22  19573416.715   104484236.977         650.147          50.125    19573422.826    81265544.422         505.719          47.375    19573423.071    81265552.426         505.667          48.063  
R23  22664464.535   121239616.066        4235.906          41.000                                                                                                                                  
